,STATEFP,COUNTYFP,COUNAME,STNAME,POPULATION,LATITUDE,LONGITUDE,naics,est,bar_over_popu
0,1.0,1.0,Autauga,Alabama,54571.0,32.500389,-86.494165,722410,1.0,18.324751241501897
1,1.0,3.0,Baldwin,Alabama,182265.0,30.548923,-87.762381,722410,10.0,54.86516884755713
2,1.0,5.0,Barbour,Alabama,27457.0,31.844036,-85.310038,722410,1.0,36.42058491459373
3,1.0,7.0,Bibb,Alabama,22915.0,33.030921,-87.127659,722410,0.0,0.0
4,1.0,9.0,Blount,Alabama,57322.0,33.955242999999996,-86.591491,722410,0.0,0.0
5,1.0,11.0,Bullock,Alabama,10914.0,32.116327000000005,-85.701192,722410,0.0,0.0
6,1.0,13.0,Butler,Alabama,20947.0,31.773539000000003,-86.65355,722410,1.0,47.73953310736621
7,1.0,15.0,Calhoun,Alabama,118572.0,33.72546,-85.81944200000001,722410,5.0,42.16847147724589
8,1.0,17.0,Chambers,Alabama,34215.0,32.860439,-85.266474,722410,0.0,0.0
9,1.0,19.0,Cherokee,Alabama,25989.0,34.179333,-85.629194,722410,0.0,0.0
10,1.0,21.0,Chilton,Alabama,43643.0,32.877547,-86.68740600000001,722410,1.0,22.91318195357789
11,1.0,23.0,Choctaw,Alabama,13859.0,32.016562,-88.26416400000001,722410,1.0,72.1552781585973
12,1.0,25.0,Clarke,Alabama,25833.0,31.685685,-87.815673,722410,0.0,0.0
13,1.0,27.0,Clay,Alabama,13932.0,33.272412,-85.820227,722410,0.0,0.0
14,1.0,29.0,Cleburne,Alabama,14972.0,33.62977,-85.494315,722410,0.0,0.0
15,1.0,31.0,Coffee,Alabama,49948.0,31.354433,-85.904715,722410,2.0,40.041643309041405
16,1.0,33.0,Colbert,Alabama,54428.0,34.723385,-87.685151,722410,5.0,91.86448151686632
17,1.0,35.0,Conecuh,Alabama,13228.0,31.418674,-86.996483,722410,0.0,0.0
18,1.0,37.0,Coosa,Alabama,11539.0,32.975932,-86.155035,722410,1.0,86.66262241095416
19,1.0,39.0,Covington,Alabama,37765.0,31.282449,-86.410955,722410,3.0,79.43863365550112
20,1.0,41.0,Crenshaw,Alabama,13906.0,31.743487,-86.29708000000001,722410,0.0,0.0
21,1.0,43.0,Cullman,Alabama,80406.0,34.162362,-86.831859,722410,0.0,0.0
22,1.0,45.0,Dale,Alabama,50251.0,31.383346000000003,-85.641269,722410,6.0,119.40060894310561
23,1.0,47.0,Dallas,Alabama,43820.0,32.408815000000004,-87.03495500000001,722410,2.0,45.64125969876768
24,1.0,49.0,DeKalb,Alabama,71109.0,34.45511,-85.817208,722410,0.0,0.0
25,1.0,51.0,Elmore,Alabama,79303.0,32.559652,-86.225647,722410,4.0,50.43945374071599
26,1.0,53.0,Escambia,Alabama,38319.0,31.088737,-87.282053,722410,2.0,52.19342884730812
27,1.0,55.0,Etowah,Alabama,104430.0,34.013692999999996,-86.02539300000001,722410,7.0,67.03054677774585
28,1.0,57.0,Fayette,Alabama,17241.0,33.726422,-87.77035500000001,722410,0.0,0.0
29,1.0,59.0,Franklin,Alabama,31704.0,34.460481,-87.793594,722410,0.0,0.0
30,1.0,61.0,Geneva,Alabama,26790.0,31.09426,-85.788849,722410,0.0,0.0
31,1.0,63.0,Greene,Alabama,9045.0,32.830505,-87.924,722410,0.0,0.0
32,1.0,65.0,Hale,Alabama,15760.0,32.775804,-87.62608399999999,722410,0.0,0.0
33,1.0,67.0,Henry,Alabama,17302.0,31.478593,-85.268828,722410,0.0,0.0
34,1.0,69.0,Houston,Alabama,101547.0,31.20455,-85.391221,722410,14.0,137.86719450106847
35,1.0,71.0,Jackson,Alabama,53227.0,34.731984000000004,-85.938698,722410,0.0,0.0
36,1.0,73.0,Jefferson,Alabama,658466.0,33.518601000000004,-86.814688,722410,51.0,77.45274623139235
37,1.0,75.0,Lamar,Alabama,14564.0,33.762769,-88.109649,722410,0.0,0.0
38,1.0,77.0,Lauderdale,Alabama,92709.0,34.866178999999995,-87.60875899999999,722410,2.0,21.57287857705293
39,1.0,79.0,Lawrence,Alabama,34339.0,34.543683,-87.272414,722410,0.0,0.0
40,1.0,81.0,Lee,Alabama,140247.0,32.588091999999996,-85.345833,722410,5.0,35.6513864824203
41,1.0,83.0,Limestone,Alabama,82782.0,34.815612,-86.93897199999999,722410,0.0,0.0
42,1.0,85.0,Lowndes,Alabama,11299.0,32.162415,-86.618688,722410,0.0,0.0
43,1.0,87.0,Macon,Alabama,21452.0,32.425739,-85.715007,722410,0.0,0.0
44,1.0,89.0,Madison,Alabama,334811.0,34.746392,-86.613232,722410,35.0,104.53658929963471
45,1.0,91.0,Marengo,Alabama,21027.0,32.340478999999995,-87.800648,722410,1.0,47.557901745375
46,1.0,93.0,Marion,Alabama,30776.0,34.111796999999996,-87.8743,722410,0.0,0.0
47,1.0,95.0,Marshall,Alabama,93019.0,34.311974,-86.293279,722410,2.0,21.500983670002903
48,1.0,97.0,Mobile,Alabama,412992.0,30.683993,-88.170637,722410,44.0,106.53959398729273
49,1.0,99.0,Monroe,Alabama,23068.0,31.505611,-87.36089399999999,722410,0.0,0.0
50,1.0,101.0,Montgomery,Alabama,229363.0,32.346175,-86.243797,722410,20.0,87.19802234885313
51,1.0,103.0,Morgan,Alabama,119490.0,34.514252,-86.93078100000001,722410,3.0,25.106703489831784
52,1.0,105.0,Perry,Alabama,10591.0,32.581066,-87.369219,722410,1.0,94.41979038806534
53,1.0,107.0,Pickens,Alabama,19746.0,33.292972999999996,-88.06647199999999,722410,0.0,0.0
54,1.0,109.0,Pike,Alabama,32899.0,31.787277000000003,-85.948647,722410,3.0,91.18818201161129
55,1.0,111.0,Randolph,Alabama,22913.0,33.257607,-85.427266,722410,0.0,0.0
56,1.0,113.0,Russell,Alabama,52947.0,32.421972,-85.062843,722410,0.0,0.0
57,1.0,115.0,St. Clair,Alabama,83593.0,33.660628,-86.369107,722410,5.0,59.81362075771895
58,1.0,117.0,Shelby,Alabama,195085.0,33.290719,-86.737978,722410,7.0,35.88179511494989
59,1.0,119.0,Sumter,Alabama,13763.0,32.57442,-88.232646,722410,2.0,145.31715469011118
60,1.0,121.0,Talladega,Alabama,82291.0,33.372083,-86.169238,722410,1.0,12.151997180736654
61,1.0,123.0,Tallapoosa,Alabama,41616.0,32.85306,-85.864503,722410,0.0,0.0
62,1.0,125.0,Tuscaloosa,Alabama,194656.0,33.214154,-87.520229,722410,24.0,123.29442709189543
63,1.0,127.0,Walker,Alabama,67023.0,33.834858000000004,-87.253922,722410,3.0,44.760753771093505
64,1.0,129.0,Washington,Alabama,17581.0,31.410368,-88.18611999999999,722410,0.0,0.0
65,1.0,131.0,Wilcox,Alabama,11670.0,31.999753000000002,-87.38040699999999,722410,0.0,0.0
66,1.0,133.0,Winston,Alabama,24484.0,34.163824,-87.415693,722410,0.0,0.0
67,2.0,13.0,Aleutians East,Alaska,3141.0,54.860151,-162.90153600000002,722410,4.0,1273.4797835084369
68,2.0,16.0,Aleutians West,Alaska,5561.0,54.023571,-168.292885,722410,1.0,179.8237727027513
69,2.0,20.0,Anchorage,Alaska,291826.0,61.192232,-149.793182,722410,45.0,154.20147622213236
70,2.0,50.0,Bethel,Alaska,17013.0,60.679945999999994,-162.151263,722410,0.0,0.0
71,2.0,60.0,Bristol Bay,Alaska,997.0,58.735464,-156.834047,722410,0.0,0.0
72,2.0,68.0,Denali,Alaska,1826.0,63.882844999999996,-149.032949,722410,1.0,547.6451259583789
73,2.0,70.0,Dillingham,Alaska,4847.0,59.136256,-158.718472,722410,2.0,412.62636682484015
74,2.0,90.0,Fairbanks North Star,Alaska,97581.0,64.831552,-147.624018,722410,27.0,276.69320871891045
75,2.0,100.0,Haines,Alaska,2508.0,59.264125,-135.559897,722410,2.0,797.4481658692185
76,2.0,105.0,Hoonah-Angoon,Alaska,2150.0,58.078281999999994,-135.384163,722410,0.0,0.0
77,2.0,110.0,Juneau,Alaska,31275.0,58.358516,-134.530605,722410,11.0,351.7186250999201
78,2.0,122.0,Kenai Peninsula,Alaska,55400.0,60.292592000000006,-151.064475,722410,24.0,433.2129963898917
79,2.0,130.0,Ketchikan Gateway,Alaska,13477.0,55.367858,-131.678527,722410,14.0,1038.8068561252505
80,2.0,150.0,Kodiak Island,Alaska,13592.0,57.779137,-152.460881,722410,5.0,367.86344908769865
81,2.0,164.0,Lake and Peninsula,Alaska,1631.0,58.557351000000004,-156.371652,722410,0.0,0.0
82,2.0,170.0,Matanuska-Susitna,Alaska,88995.0,61.611281000000005,-149.421961,722410,16.0,179.78538120119106
83,2.0,180.0,Nome,Alaska,9492.0,64.457026,-165.295491,722410,3.0,316.0556257901391
84,2.0,185.0,North Slope,Alaska,9430.0,70.522779,-154.862085,722410,0.0,0.0
85,2.0,188.0,Northwest Arctic,Alaska,7523.0,66.943735,-161.63818500000002,722410,0.0,0.0
86,2.0,195.0,Petersburg,Alaska,3815.0,56.812712,-133.115025,722410,0.0,0.0
87,2.0,198.0,Prince of Wales-Hyder,Alaska,5559.0,55.448164,-132.56084199999998,722410,0.0,0.0
88,2.0,220.0,Sitka,Alaska,8881.0,57.062746,-135.33717099999998,722410,2.0,225.1998648800811
89,2.0,230.0,Skagway,Alaska,968.0,59.464535999999995,-135.311501,722410,0.0,0.0
90,2.0,240.0,Southeast Fairbanks,Alaska,7029.0,63.856184999999996,-144.687024,722410,1.0,142.2677479015507
91,2.0,261.0,Valdez-Cordova,Alaska,9636.0,61.26149,-145.882504,722410,5.0,518.8875051888751
92,2.0,270.0,Wade Hampton,Alaska,7459.0,62.089902,-164.314723,722410,0.0,0.0
93,2.0,275.0,Wrangell,Alaska,2369.0,56.38582099999999,-132.31083700000002,722410,0.0,0.0
94,2.0,282.0,Yakutat,Alaska,662.0,59.547975,-139.724878,722410,0.0,0.0
95,2.0,290.0,Yukon-Koyukuk,Alaska,5588.0,65.010262,-152.550423,722410,0.0,0.0
96,4.0,1.0,Apache,Arizona,71518.0,35.577687,-109.41483999999998,722410,5.0,69.91246958807574
97,4.0,3.0,Cochise,Arizona,131346.0,31.607357,-110.063053,722410,28.0,213.17740928539885
98,4.0,5.0,Coconino,Arizona,134421.0,35.514426,-111.590056,722410,23.0,171.1042173469919
99,4.0,7.0,Gila,Arizona,53597.0,33.82356,-111.007494,722410,10.0,186.5776069556132
100,4.0,9.0,Graham,Arizona,37220.0,32.867329999999995,-109.81218100000001,722410,3.0,80.60182697474475
101,4.0,11.0,Greenlee,Arizona,8437.0,32.970402,-109.24871200000001,722410,3.0,355.5766267630674
102,4.0,12.0,La Paz,Arizona,20489.0,33.908361,-114.172146,722410,5.0,244.0333837668993
103,4.0,13.0,Maricopa,Arizona,3817117.0,33.493403,-112.04143,722410,334.0,87.50059272482348
104,4.0,15.0,Mohave,Arizona,200186.0,35.069679,-114.24963400000001,722410,23.0,114.89314937108489
105,4.0,17.0,Navajo,Arizona,107449.0,34.893625,-110.211155,722410,10.0,93.06740872413889
106,4.0,19.0,Pima,Arizona,980263.0,32.216707,-110.96001000000001,722410,93.0,94.87249850295278
107,4.0,21.0,Pinal,Arizona,375770.0,33.060133,-111.58836399999998,722410,21.0,55.88524895547808
108,4.0,23.0,Santa Cruz,Arizona,47420.0,31.434733,-110.94319499999999,722410,3.0,63.26444538169548
109,4.0,25.0,Yavapai,Arizona,211033.0,34.629014,-112.26776699999999,722410,40.0,189.54381542223257
110,4.0,27.0,Yuma,Arizona,195751.0,32.650040000000004,-114.59866299999999,722410,24.0,122.60473765140408
111,5.0,1.0,Arkansas,Arkansas,19019.0,34.405316,-91.46128399999999,722410,1.0,52.578999947420996
112,5.0,3.0,Ashley,Arkansas,21853.0,33.179373,-91.87136,722410,0.0,0.0
113,5.0,5.0,Baxter,Arkansas,41513.0,36.332208,-92.383933,722410,3.0,72.26651892178354
114,5.0,7.0,Benton,Arkansas,221339.0,36.337348,-94.23054300000001,722410,11.0,49.69752280438603
115,5.0,9.0,Boone,Arkansas,36903.0,36.267871,-93.09934399999999,722410,0.0,0.0
116,5.0,11.0,Bradley,Arkansas,11508.0,33.569321,-92.103312,722410,0.0,0.0
117,5.0,13.0,Calhoun,Arkansas,5368.0,33.591116,-92.49555500000001,722410,0.0,0.0
118,5.0,15.0,Carroll,Arkansas,27446.0,36.373069,-93.57081600000001,722410,2.0,72.87036362311447
119,5.0,17.0,Chicot,Arkansas,11800.0,33.32186,-91.31837800000001,722410,0.0,0.0
120,5.0,19.0,Clark,Arkansas,22995.0,34.094705,-93.12485600000001,722410,0.0,0.0
121,5.0,21.0,Clay,Arkansas,16083.0,36.370695,-90.37241800000001,722410,0.0,0.0
122,5.0,23.0,Cleburne,Arkansas,25970.0,35.510232,-92.037481,722410,1.0,38.50596842510589
123,5.0,25.0,Cleveland,Arkansas,8689.0,33.914989,-92.139146,722410,0.0,0.0
124,5.0,27.0,Columbia,Arkansas,24552.0,33.258045,-93.24745899999999,722410,0.0,0.0
125,5.0,29.0,Conway,Arkansas,21273.0,35.214487,-92.70416,722410,3.0,141.0238330277817
126,5.0,31.0,Craighead,Arkansas,96443.0,35.835235,-90.669325,722410,1.0,10.368818887840487
127,5.0,33.0,Crawford,Arkansas,61948.0,35.496882,-94.28435999999999,722410,0.0,0.0
128,5.0,35.0,Crittenden,Arkansas,50902.0,35.17736,-90.217261,722410,0.0,0.0
129,5.0,37.0,Cross,Arkansas,17870.0,35.252833,-90.775307,722410,0.0,0.0
130,5.0,39.0,Dallas,Arkansas,8116.0,33.869213,-92.527123,722410,1.0,123.2134056185313
131,5.0,41.0,Desha,Arkansas,13008.0,33.773838,-91.417485,722410,2.0,153.75153751537516
132,5.0,43.0,Drew,Arkansas,18509.0,33.6274,-91.781779,722410,0.0,0.0
133,5.0,45.0,Faulkner,Arkansas,113237.0,35.104918,-92.40535899999999,722410,0.0,0.0
134,5.0,47.0,Franklin,Arkansas,18125.0,35.446102,-93.885464,722410,0.0,0.0
135,5.0,49.0,Fulton,Arkansas,12245.0,36.376787,-91.764934,722410,0.0,0.0
136,5.0,51.0,Garland,Arkansas,96024.0,34.505811,-93.081852,722410,9.0,93.72656835791052
137,5.0,53.0,Grant,Arkansas,17853.0,34.309174,-92.41271400000001,722410,0.0,0.0
138,5.0,55.0,Greene,Arkansas,42090.0,36.07312,-90.523016,722410,4.0,95.0344499881207
139,5.0,57.0,Hempstead,Arkansas,22609.0,33.699647,-93.623587,722410,0.0,0.0
140,5.0,59.0,Hot Spring,Arkansas,32923.0,34.353464,-92.894595,722410,0.0,0.0
141,5.0,61.0,Howard,Arkansas,13789.0,33.983198,-93.910184,722410,0.0,0.0
142,5.0,63.0,Independence,Arkansas,36647.0,35.749801,-91.607539,722410,2.0,54.5747264441837
143,5.0,65.0,Izard,Arkansas,13696.0,36.120217,-91.908429,722410,1.0,73.01401869158877
144,5.0,67.0,Jackson,Arkansas,17997.0,35.621102,-91.24623299999999,722410,1.0,55.56481635828194
145,5.0,69.0,Jefferson,Arkansas,77435.0,34.233473,-92.041179,722410,3.0,38.74217085297346
146,5.0,71.0,Johnson,Arkansas,25540.0,35.475272,-93.47551700000001,722410,0.0,0.0
147,5.0,73.0,Lafayette,Arkansas,7645.0,33.287628999999995,-93.557538,722410,0.0,0.0
148,5.0,75.0,Lawrence,Arkansas,17415.0,36.070223999999996,-91.065733,722410,0.0,0.0
149,5.0,77.0,Lee,Arkansas,10424.0,34.785214,-90.774516,722410,0.0,0.0
150,5.0,79.0,Lincoln,Arkansas,14134.0,33.975379,-91.746234,722410,0.0,0.0
151,5.0,81.0,Little River,Arkansas,13171.0,33.700518,-94.195995,722410,0.0,0.0
152,5.0,83.0,Logan,Arkansas,22353.0,35.227532000000004,-93.768119,722410,2.0,89.47344875408223
153,5.0,85.0,Lonoke,Arkansas,68356.0,34.905178,-91.970577,722410,0.0,0.0
154,5.0,87.0,Madison,Arkansas,15717.0,36.061309,-93.755297,722410,0.0,0.0
155,5.0,89.0,Marion,Arkansas,16653.0,36.28457,-92.663368,722410,0.0,0.0
156,5.0,91.0,Miller,Arkansas,43462.0,33.400831,-93.987504,722410,5.0,115.04302609175832
157,5.0,93.0,Mississippi,Arkansas,46480.0,35.84288,-89.999037,722410,3.0,64.54388984509465
158,5.0,95.0,Monroe,Arkansas,8149.0,34.777729,-91.218021,722410,0.0,0.0
159,5.0,97.0,Montgomery,Arkansas,9487.0,34.517013,-93.622663,722410,0.0,0.0
160,5.0,99.0,Nevada,Arkansas,8997.0,33.722167999999996,-93.358085,722410,0.0,0.0
161,5.0,101.0,Newton,Arkansas,8330.0,35.98494,-93.1705,722410,0.0,0.0
162,5.0,103.0,Ouachita,Arkansas,26120.0,33.574461,-92.838871,722410,2.0,76.5696784073507
163,5.0,105.0,Perry,Arkansas,10445.0,34.999054,-92.779271,722410,0.0,0.0
164,5.0,107.0,Phillips,Arkansas,21757.0,34.529768,-90.707796,722410,0.0,0.0
165,5.0,109.0,Pike,Arkansas,11291.0,34.187298,-93.624765,722410,0.0,0.0
166,5.0,111.0,Poinsett,Arkansas,24583.0,35.60191,-90.557998,722410,1.0,40.67851767481593
167,5.0,113.0,Polk,Arkansas,20662.0,34.52045,-94.25851899999999,722410,0.0,0.0
168,5.0,115.0,Pope,Arkansas,61754.0,35.309776,-93.097238,722410,1.0,16.19328302620073
169,5.0,117.0,Prairie,Arkansas,8715.0,34.859177,-91.536241,722410,0.0,0.0
170,5.0,119.0,Pulaski,Arkansas,382748.0,34.773719,-92.31165899999999,722410,34.0,88.83129369715844
171,5.0,121.0,Randolph,Arkansas,17969.0,36.304758,-90.98841999999999,722410,0.0,0.0
172,5.0,123.0,St. Francis,Arkansas,28258.0,35.015313,-90.770297,722410,0.0,0.0
173,5.0,125.0,Saline,Arkansas,107118.0,34.593233000000005,-92.546163,722410,1.0,9.335499169140574
174,5.0,127.0,Scott,Arkansas,11233.0,34.907145,-94.095905,722410,0.0,0.0
175,5.0,129.0,Searcy,Arkansas,8195.0,35.922829,-92.659155,722410,0.0,0.0
176,5.0,131.0,Sebastian,Arkansas,125744.0,35.318195,-94.354435,722410,16.0,127.24265173686219
177,5.0,133.0,Sevier,Arkansas,17058.0,34.014236,-94.304091,722410,0.0,0.0
178,5.0,135.0,Sharp,Arkansas,17264.0,36.178492999999996,-91.520168,722410,0.0,0.0
179,5.0,137.0,Stone,Arkansas,12394.0,35.856705,-92.137,722410,0.0,0.0
180,5.0,139.0,Union,Arkansas,41639.0,33.20687,-92.64508000000001,722410,0.0,0.0
181,5.0,141.0,Van Buren,Arkansas,17295.0,35.567839,-92.421475,722410,1.0,57.82017924255565
182,5.0,143.0,Washington,Arkansas,203065.0,36.094275,-94.17222199999999,722410,26.0,128.03782040233423
183,5.0,145.0,White,Arkansas,77076.0,35.243736,-91.767388,722410,1.0,12.974207275935441
184,5.0,147.0,Woodruff,Arkansas,7260.0,35.233191,-91.25207900000001,722410,0.0,0.0
185,5.0,149.0,Yell,Arkansas,22185.0,35.120982,-93.28945999999999,722410,0.0,0.0
186,6.0,1.0,Alameda,California,1510271.0,37.705201,-122.100393,722410,134.0,88.72579821767086
187,6.0,3.0,Alpine,California,1175.0,38.728297999999995,-119.847603,722410,0.0,0.0
188,6.0,5.0,Amador,California,38091.0,38.394208,-120.775729,722410,3.0,78.75876191226274
189,6.0,7.0,Butte,California,220000.0,39.669037,-121.70763500000001,722410,25.0,113.63636363636364
190,6.0,9.0,Calaveras,California,45578.0,38.163627000000005,-120.63371799999999,722410,4.0,87.76163938742376
191,6.0,11.0,Colusa,California,21419.0,39.156147999999995,-122.08555700000001,722410,4.0,186.75008170316073
192,6.0,13.0,Contra Costa,California,1049025.0,37.935588,-122.03013100000001,722410,65.0,61.96229832463479
193,6.0,15.0,Del Norte,California,28610.0,41.791232,-124.16308799999999,722410,4.0,139.8112548060119
194,6.0,17.0,El Dorado,California,181058.0,38.746543,-120.74433,722410,15.0,82.84638071778105
195,6.0,19.0,Fresno,California,930450.0,36.738918,-119.76788400000001,722410,55.0,59.11118276102961
196,6.0,21.0,Glenn,California,28122.0,39.663418,-122.17749099999999,722410,2.0,71.11869710546902
197,6.0,23.0,Humboldt,California,134623.0,40.752982,-124.087189,722410,22.0,163.41932656381155
198,6.0,25.0,Imperial,California,174528.0,32.841101,-115.53448700000001,722410,15.0,85.94609460946096
199,6.0,27.0,Inyo,California,18546.0,37.160247,-118.267513,722410,2.0,107.83996549121103
200,6.0,29.0,Kern,California,839631.0,35.372968,-118.936004,722410,60.0,71.45996276935941
201,6.0,31.0,Kings,California,152982.0,36.242748999999996,-119.72908400000001,722410,8.0,52.29373390333503
202,6.0,33.0,Lake,California,64665.0,38.973362,-122.734609,722410,10.0,154.64316090620892
203,6.0,35.0,Lassen,California,34895.0,40.392396999999995,-120.579176,722410,5.0,143.2870038687491
204,6.0,37.0,Los Angeles,California,9818605.0,34.065193,-118.244222,722410,752.0,76.58929145229898
205,6.0,39.0,Madera,California,150865.0,37.043099,-120.00675,722410,4.0,26.513770589599975
206,6.0,41.0,Marin,California,252409.0,37.986705,-122.547075,722410,23.0,91.12194890039578
207,6.0,43.0,Mariposa,California,18251.0,37.542747999999996,-119.957219,722410,0.0,0.0
208,6.0,45.0,Mendocino,California,87841.0,39.285329,-123.397227,722410,18.0,204.91569995787842
209,6.0,47.0,Merced,California,255793.0,37.281015999999994,-120.623989,722410,17.0,66.45998913183708
210,6.0,49.0,Modoc,California,9686.0,41.522584,-120.65091100000001,722410,0.0,0.0
211,6.0,51.0,Mono,California,14202.0,37.763321999999995,-118.97059399999999,722410,1.0,70.41261794113504
212,6.0,53.0,Monterey,California,415057.0,36.611722,-121.64616200000002,722410,24.0,57.823383294342705
213,6.0,55.0,Napa,California,136484.0,38.329075,-122.321646,722410,7.0,51.28806306966384
214,6.0,57.0,Nevada,California,98764.0,39.219524,-120.916546,722410,11.0,111.37661496091694
215,6.0,59.0,Orange,California,3010232.0,33.733953,-117.86288,722410,224.0,74.41286917420318
216,6.0,61.0,Placer,California,348432.0,38.844511,-121.18246599999999,722410,19.0,54.53000872480139
217,6.0,63.0,Plumas,California,20007.0,39.983857,-120.825847,722410,6.0,299.895036737142
218,6.0,65.0,Riverside,California,2189641.0,33.800439000000004,-117.06620500000001,722410,94.0,42.929411716349854
219,6.0,67.0,Sacramento,California,1418788.0,38.56895,-121.38086100000001,722410,102.0,71.89234755298185
220,6.0,69.0,San Benito,California,55269.0,36.843404,-121.40385900000001,722410,3.0,54.27997611681051
221,6.0,71.0,San Bernardino,California,2035210.0,34.190248,-117.357474,722410,107.0,52.5744272089858
222,6.0,73.0,San Diego,California,3095313.0,32.88326,-117.112994,722410,329.0,106.28973548070906
223,6.0,75.0,San Francisco,California,805235.0,37.759598,-122.438323,722410,345.0,428.44635416990076
224,6.0,77.0,San Joaquin,California,685306.0,37.931804,-121.29810800000001,722410,47.0,68.58250183129871
225,6.0,79.0,San Luis Obispo,California,269637.0,35.342391,-120.667689,722410,32.0,118.67807459658727
226,6.0,81.0,San Mateo,California,718451.0,37.56395,-122.34099099999999,722410,57.0,79.33735216458743
227,6.0,83.0,Santa Barbara,California,423895.0,34.639262,-120.092602,722410,46.0,108.5174394602437
228,6.0,85.0,Santa Clara,California,1781642.0,37.315104999999996,-121.910421,722410,145.0,81.38559822904938
229,6.0,87.0,Santa Cruz,California,262382.0,36.985171,-121.936728,722410,36.0,137.20453384759625
230,6.0,89.0,Shasta,California,177223.0,40.580269,-122.29996100000001,722410,18.0,101.56695237074194
231,6.0,91.0,Sierra,California,3240.0,39.612588,-120.41423600000002,722410,0.0,0.0
232,6.0,93.0,Siskiyou,California,44900.0,41.576203,-122.489833,722410,9.0,200.44543429844097
233,6.0,95.0,Solano,California,413344.0,38.235582,-122.069324,722410,41.0,99.19098861964852
234,6.0,97.0,Sonoma,California,483878.0,38.41408,-122.720522,722410,54.0,111.59837810357156
235,6.0,99.0,Stanislaus,California,514453.0,37.619147,-120.955577,722410,27.0,52.48292846965612
236,6.0,101.0,Sutter,California,94737.0,39.135490000000004,-121.644269,722410,9.0,94.99984166693056
237,6.0,103.0,Tehama,California,63463.0,40.115187,-122.218704,722410,4.0,63.028851456754325
238,6.0,105.0,Trinity,California,13786.0,40.681267999999996,-123.07235700000001,722410,5.0,362.68678369360225
239,6.0,107.0,Tulare,California,442179.0,36.251227,-119.23154699999999,722410,13.0,29.399858428374028
240,6.0,109.0,Tuolumne,California,55365.0,37.971531,-120.32853,722410,5.0,90.30976248532467
241,6.0,111.0,Ventura,California,823318.0,34.241989000000004,-119.02501799999999,722410,47.0,57.086083384548864
242,6.0,113.0,Yolo,California,200849.0,38.598913,-121.721112,722410,17.0,84.64070022753413
243,6.0,115.0,Yuba,California,72155.0,39.13883,-121.506626,722410,5.0,69.2952671332548
244,8.0,1.0,Adams,Colorado,441603.0,39.874297,-104.92747299999999,722410,55.0,124.54625534699719
245,8.0,3.0,Alamosa,Colorado,15445.0,37.483069,-105.877245,722410,1.0,64.74587245063128
246,8.0,5.0,Arapahoe,Colorado,572003.0,39.647528,-104.845968,722410,59.0,103.14631216969141
247,8.0,7.0,Archuleta,Colorado,12084.0,37.240087,-107.085027,722410,3.0,248.26216484607744
248,8.0,9.0,Baca,Colorado,3788.0,37.368221000000005,-102.527089,722410,0.0,0.0
249,8.0,11.0,Bent,Colorado,6499.0,38.072386,-103.1631,722410,0.0,0.0
250,8.0,13.0,Boulder,Colorado,294567.0,40.063299,-105.183981,722410,23.0,78.08070829386862
251,8.0,14.0,Broomfield,Colorado,55889.0,39.936888,-105.05549099999999,722410,6.0,107.35565138041476
252,8.0,15.0,Chaffee,Colorado,17809.0,38.676497,-106.082645,722410,3.0,168.45415239485655
253,8.0,17.0,Cheyenne,Colorado,1836.0,38.816795,-102.45777,722410,1.0,544.6623093681918
254,8.0,19.0,Clear Creek,Colorado,9088.0,39.712957,-105.52965,722410,3.0,330.1056338028169
255,8.0,21.0,Conejos,Colorado,8256.0,37.195652,-105.989049,722410,1.0,121.12403100775194
256,8.0,23.0,Costilla,Colorado,3524.0,37.281779,-105.448477,722410,0.0,0.0
257,8.0,25.0,Crowley,Colorado,5823.0,38.188547,-103.857439,722410,0.0,0.0
258,8.0,27.0,Custer,Colorado,4255.0,38.134215999999995,-105.381557,722410,0.0,0.0
259,8.0,29.0,Delta,Colorado,30952.0,38.798565,-107.91055300000001,722410,6.0,193.84853967433446
260,8.0,31.0,Denver,Colorado,600158.0,39.72143,-104.955068,722410,185.0,308.2521602644637
261,8.0,33.0,Dolores,Colorado,2064.0,37.740817,-108.75741000000001,722410,0.0,0.0
262,8.0,35.0,Douglas,Colorado,285465.0,39.48527,-104.87971200000001,722410,12.0,42.0366770006831
263,8.0,37.0,Eagle,Colorado,52197.0,39.599453000000004,-106.717771,722410,6.0,114.94913500775907
264,8.0,39.0,Elbert,Colorado,23086.0,39.382868,-104.51913,722410,1.0,43.31629559040111
265,8.0,41.0,El Paso,Colorado,622263.0,38.873669,-104.758477,722410,98.0,157.4896788014071
266,8.0,43.0,Fremont,Colorado,46824.0,38.426058000000005,-105.20653200000001,722410,5.0,106.78284640355373
267,8.0,45.0,Garfield,Colorado,56389.0,39.507560999999995,-107.53935600000001,722410,9.0,159.60559683626238
268,8.0,47.0,Gilpin,Colorado,5441.0,39.85702,-105.48021000000001,722410,1.0,183.7897445322551
269,8.0,49.0,Grand,Colorado,14843.0,40.050388,-105.9754,722410,9.0,606.3464259246783
270,8.0,51.0,Gunnison,Colorado,15324.0,38.657886,-106.944723,722410,8.0,522.0569042025581
271,8.0,53.0,Hinsdale,Colorado,843.0,37.996875,-107.29653,722410,1.0,1186.2396204033216
272,8.0,55.0,Huerfano,Colorado,6711.0,37.616312,-104.884201,722410,2.0,298.01817910892566
273,8.0,57.0,Jackson,Colorado,1394.0,40.692851,-106.291292,722410,1.0,717.3601147776184
274,8.0,59.0,Jefferson,Colorado,534543.0,39.720524,-105.128819,722410,73.0,136.56525293568527
275,8.0,61.0,Kiowa,Colorado,1398.0,38.470657,-102.68057900000001,722410,0.0,0.0
276,8.0,63.0,Kit Carson,Colorado,8270.0,39.309763000000004,-102.435733,722410,0.0,0.0
277,8.0,65.0,Lake,Colorado,7310.0,39.245870000000004,-106.30806100000001,722410,5.0,683.9945280437756
278,8.0,67.0,La Plata,Colorado,51334.0,37.265198,-107.806184,722410,12.0,233.76319788054698
279,8.0,69.0,Larimer,Colorado,299630.0,40.504546000000005,-105.099218,722410,41.0,136.83543036411572
280,8.0,71.0,Las Animas,Colorado,15507.0,37.196601,-104.503149,722410,2.0,128.97401173663505
281,8.0,73.0,Lincoln,Colorado,5467.0,39.173232,-103.613697,722410,0.0,0.0
282,8.0,75.0,Logan,Colorado,22709.0,40.639399,-103.187715,722410,3.0,132.10621339557005
283,8.0,77.0,Mesa,Colorado,146723.0,39.092851,-108.543768,722410,18.0,122.68015239601154
284,8.0,79.0,Mineral,Colorado,712.0,37.798623,-106.93558600000001,722410,1.0,1404.4943820224719
285,8.0,81.0,Moffat,Colorado,13795.0,40.515239,-107.625859,722410,2.0,144.98006524102937
286,8.0,83.0,Montezuma,Colorado,25535.0,37.370816999999995,-108.557116,722410,5.0,195.8096729978461
287,8.0,85.0,Montrose,Colorado,41276.0,38.479141999999996,-107.934568,722410,4.0,96.90861517588914
288,8.0,87.0,Morgan,Colorado,28159.0,40.256023,-103.78151700000001,722410,2.0,71.02524947618879
289,8.0,89.0,Otero,Colorado,18831.0,38.024096,-103.657432,722410,5.0,265.5196219000584
290,8.0,91.0,Ouray,Colorado,4436.0,38.139834,-107.746232,722410,2.0,450.8566275924256
291,8.0,93.0,Park,Colorado,16206.0,39.311718,-105.623144,722410,4.0,246.8221646303838
292,8.0,95.0,Phillips,Colorado,4442.0,40.599517,-102.387354,722410,0.0,0.0
293,8.0,97.0,Pitkin,Colorado,17148.0,39.232543,-106.907765,722410,7.0,408.21087007231165
294,8.0,99.0,Prowers,Colorado,12551.0,38.083771999999996,-102.547035,722410,3.0,239.0247789020795
295,8.0,101.0,Pueblo,Colorado,159063.0,38.263684999999995,-104.645147,722410,39.0,245.18586974972183
296,8.0,103.0,Rio Blanco,Colorado,6666.0,40.051033000000004,-108.280174,722410,2.0,300.03000300030004
297,8.0,105.0,Rio Grande,Colorado,11982.0,37.616658,-106.238805,722410,2.0,166.91704223001167
298,8.0,107.0,Routt,Colorado,23509.0,40.453133,-106.89953500000001,722410,8.0,340.2952060912842
299,8.0,109.0,Saguache,Colorado,6108.0,37.915302000000004,-106.019489,722410,1.0,163.71971185330713
300,8.0,111.0,San Juan,Colorado,699.0,37.804646000000005,-107.67398899999999,722410,1.0,1430.615164520744
301,8.0,113.0,San Miguel,Colorado,7359.0,37.974202000000005,-107.96003400000001,722410,4.0,543.5521130588395
302,8.0,115.0,Sedgwick,Colorado,2379.0,40.960246000000005,-102.32767,722410,1.0,420.3446826397646
303,8.0,117.0,Summit,Colorado,27994.0,39.573131,-106.054579,722410,15.0,535.8291062370507
304,8.0,119.0,Teller,Colorado,23350.0,38.94355,-105.14053200000001,722410,4.0,171.30620985010708
305,8.0,121.0,Washington,Colorado,4814.0,40.092526,-103.156814,722410,0.0,0.0
306,8.0,123.0,Weld,Colorado,252825.0,40.328082,-104.788507,722410,25.0,98.88262632255513
307,8.0,125.0,Yuma,Colorado,10043.0,40.069472999999995,-102.486935,722410,2.0,199.14368216668328
308,9.0,1.0,Fairfield,Connecticut,916829.0,41.207889,-73.364521,722410,70.0,76.35011545228173
309,9.0,3.0,Hartford,Connecticut,894014.0,41.761943,-72.717282,722410,85.0,95.076810877682
310,9.0,5.0,Litchfield,Connecticut,189927.0,41.727851,-73.187494,722410,9.0,47.38662749372127
311,9.0,7.0,Middlesex,Connecticut,165676.0,41.478564,-72.57140799999999,722410,15.0,90.53815881600232
312,9.0,9.0,New Haven,Connecticut,862477.0,41.396052000000005,-72.941497,722410,88.0,102.03170635274911
313,9.0,11.0,New London,Connecticut,274055.0,41.443373,-72.09768299999999,722410,29.0,105.81817518381347
314,9.0,13.0,Tolland,Connecticut,152691.0,41.842762,-72.37209,722410,12.0,78.59009371868676
315,9.0,15.0,Windham,Connecticut,118428.0,41.804225,-71.995072,722410,16.0,135.10318505758775
316,10.0,1.0,Kent,Delaware,162310.0,39.12322,-75.558604,722410,6.0,36.96629905735937
317,10.0,3.0,New Castle,Delaware,538479.0,39.68502,-75.634376,722410,37.0,68.7120574804217
318,10.0,5.0,Sussex,Delaware,197145.0,38.662387,-75.346649,722410,15.0,76.08612949859241
319,11.0,1.0,District of Columbia,District of Columbia,601723.0,38.910270000000004,-77.01446800000001,722410,108.0,179.48458011410568
320,12.0,1.0,Alachua,Florida,247336.0,29.665903000000004,-82.386845,722410,28.0,113.20632661642462
321,12.0,3.0,Baker,Florida,27115.0,30.288432,-82.185477,722410,1.0,36.87995574405311
322,12.0,5.0,Bay,Florida,168852.0,30.206925,-85.660217,722410,30.0,177.67038590007817
323,12.0,7.0,Bradford,Florida,28520.0,29.953428999999996,-82.128192,722410,2.0,70.12622720897616
324,12.0,9.0,Brevard,Florida,543376.0,28.232195,-80.690979,722410,81.0,149.06804864403287
325,12.0,11.0,Broward,Florida,1748066.0,26.134058,-80.227135,722410,196.0,112.12391294150221
326,12.0,13.0,Calhoun,Florida,14625.0,30.463143,-85.122189,722410,0.0,0.0
327,12.0,15.0,Charlotte,Florida,159978.0,26.954793,-82.119946,722410,19.0,118.76633037042593
328,12.0,17.0,Citrus,Florida,141236.0,28.863598,-82.453512,722410,10.0,70.80347786683282
329,12.0,19.0,Clay,Florida,190865.0,30.084386,-81.79941,722410,14.0,73.35027375370026
330,12.0,21.0,Collier,Florida,321520.0,26.199831,-81.699625,722410,20.0,62.20452848967405
331,12.0,23.0,Columbia,Florida,67531.0,30.126051,-82.660566,722410,2.0,29.616028194458842
332,12.0,27.0,DeSoto,Florida,34862.0,27.189369,-81.864094,722410,3.0,86.05358269749297
333,12.0,29.0,Dixie,Florida,16422.0,29.634179,-83.056329,722410,4.0,243.57569114602364
334,12.0,31.0,Duval,Florida,864263.0,30.300302000000002,-81.622853,722410,90.0,104.13496817519668
335,12.0,33.0,Escambia,Florida,297619.0,30.485314000000002,-87.274788,722410,45.0,151.20002419200387
336,12.0,35.0,Flagler,Florida,95696.0,29.523494,-81.224735,722410,8.0,83.59806052499582
337,12.0,37.0,Franklin,Florida,11549.0,29.786787,-84.822838,722410,1.0,86.58758334054896
338,12.0,39.0,Gadsden,Florida,46389.0,30.59828,-84.581397,722410,4.0,86.22733837763262
339,12.0,41.0,Gilchrist,Florida,16939.0,29.704639,-82.808262,722410,2.0,118.07072436389397
340,12.0,43.0,Glades,Florida,12884.0,26.896029,-81.185404,722410,2.0,155.2312946289972
341,12.0,45.0,Gulf,Florida,15863.0,29.988578999999998,-85.259478,722410,3.0,189.11933429994326
342,12.0,47.0,Hamilton,Florida,14799.0,30.501534000000003,-82.997218,722410,1.0,67.57213325224677
343,12.0,49.0,Hardee,Florida,27731.0,27.548312,-81.815432,722410,1.0,36.060726263026936
344,12.0,51.0,Hendry,Florida,39140.0,26.705392,-81.20257099999999,722410,3.0,76.64793050587635
345,12.0,53.0,Hernando,Florida,172778.0,28.50485,-82.496961,722410,22.0,127.33102594080265
346,12.0,55.0,Highlands,Florida,98786.0,27.460415,-81.442555,722410,7.0,70.86024335432145
347,12.0,57.0,Hillsborough,Florida,1229226.0,27.976529,-82.401275,722410,113.0,91.92776592750235
348,12.0,59.0,Holmes,Florida,19927.0,30.847684,-85.758558,722410,1.0,50.18316856526321
349,12.0,61.0,Indian River,Florida,138028.0,27.671827,-80.44058100000001,722410,7.0,50.71434781348712
350,12.0,63.0,Jackson,Florida,49746.0,30.800240000000002,-85.21611899999999,722410,0.0,0.0
351,12.0,65.0,Jefferson,Florida,14761.0,30.504031,-83.886291,722410,1.0,67.74608766343744
352,12.0,67.0,Lafayette,Florida,8870.0,30.065417999999998,-83.179508,722410,0.0,0.0
353,12.0,69.0,Lake,Florida,297052.0,28.735689,-81.752026,722410,16.0,53.86262337907168
354,12.0,71.0,Lee,Florida,618754.0,26.574991999999998,-81.858144,722410,45.0,72.72680257420558
355,12.0,73.0,Leon,Florida,275487.0,30.466103000000004,-84.270371,722410,25.0,90.74838377128503
356,12.0,75.0,Levy,Florida,40801.0,29.379995,-82.666319,722410,7.0,171.56442244062646
357,12.0,77.0,Liberty,Florida,8365.0,30.399795,-84.905169,722410,0.0,0.0
358,12.0,79.0,Madison,Florida,19224.0,30.47263,-83.430563,722410,0.0,0.0
359,12.0,81.0,Manatee,Florida,322833.0,27.477054,-82.532775,722410,36.0,111.51276356506305
360,12.0,83.0,Marion,Florida,331298.0,29.140116,-82.123367,722410,28.0,84.51605503202555
361,12.0,85.0,Martin,Florida,146318.0,27.1443,-80.244395,722410,14.0,95.68200768189833
362,12.0,86.0,Miami-Dade,Florida,2496435.0,25.774565,-80.298888,722410,159.0,63.690823113760224
363,12.0,87.0,Monroe,Florida,73090.0,24.739678,-81.26394499999999,722410,28.0,383.0893419072376
364,12.0,89.0,Nassau,Florida,73314.0,30.607962,-81.647153,722410,7.0,95.47971738003656
365,12.0,91.0,Okaloosa,Florida,180822.0,30.542828999999998,-86.567105,722410,23.0,127.19691188019158
366,12.0,93.0,Okeechobee,Florida,39996.0,27.272057,-80.822153,722410,1.0,25.002500250025005
367,12.0,95.0,Orange,Florida,1145956.0,28.532854999999998,-81.384377,722410,113.0,98.60762542366373
368,12.0,97.0,Osceola,Florida,268685.0,28.266765000000003,-81.383484,722410,16.0,59.549286339021535
369,12.0,99.0,Palm Beach,Florida,1320134.0,26.617075,-80.146119,722410,120.0,90.89986319570589
370,12.0,101.0,Pasco,Florida,464697.0,28.261606,-82.51608,722410,54.0,116.20475277438848
371,12.0,103.0,Pinellas,Florida,916542.0,27.899794,-82.727651,722410,158.0,172.38708100665326
372,12.0,105.0,Polk,Florida,602095.0,28.03114,-81.799975,722410,45.0,74.73903619860654
373,12.0,107.0,Putnam,Florida,74364.0,29.609299,-81.720431,722410,14.0,188.26313807756443
374,12.0,109.0,St. Johns,Florida,190039.0,29.977088000000002,-81.421504,722410,14.0,73.66908897647325
375,12.0,111.0,St. Lucie,Florida,277789.0,27.338067,-80.353183,722410,18.0,64.79738218575969
376,12.0,113.0,Santa Rosa,Florida,151372.0,30.549592999999998,-87.03695400000001,722410,7.0,46.24369103929393
377,12.0,115.0,Sarasota,Florida,379448.0,27.208205,-82.423893,722410,48.0,126.49954670995763
378,12.0,117.0,Seminole,Florida,422718.0,28.697834000000004,-81.310445,722410,45.0,106.45394802208564
379,12.0,119.0,Sumter,Florida,93420.0,28.825768,-82.03546899999999,722410,5.0,53.521729822307854
380,12.0,121.0,Suwannee,Florida,41551.0,30.214688,-82.987546,722410,2.0,48.13361892613896
381,12.0,123.0,Taylor,Florida,22570.0,30.064881,-83.59796700000001,722410,4.0,177.22640673460347
382,12.0,125.0,Union,Florida,15535.0,30.010768,-82.35691899999999,722410,2.0,128.7415513356936
383,12.0,127.0,Volusia,Florida,494593.0,29.073725,-81.123944,722410,81.0,163.77101980820595
384,12.0,129.0,Wakulla,Florida,30776.0,30.185525,-84.331546,722410,1.0,32.49285157265401
385,12.0,131.0,Walton,Florida,55043.0,30.583728999999998,-86.190665,722410,5.0,90.83807205275875
386,12.0,133.0,Washington,Florida,24896.0,30.650717999999998,-85.625419,722410,0.0,0.0
387,13.0,1.0,Appling,Georgia,18236.0,31.77388,-82.338473,722410,0.0,0.0
388,13.0,3.0,Atkinson,Georgia,8375.0,31.317301,-82.886363,722410,0.0,0.0
389,13.0,5.0,Bacon,Georgia,11096.0,31.547221,-82.466071,722410,0.0,0.0
390,13.0,7.0,Baker,Georgia,3451.0,31.307754,-84.437989,722410,0.0,0.0
391,13.0,9.0,Baldwin,Georgia,45720.0,33.084849,-83.245659,722410,2.0,43.744531933508306
392,13.0,11.0,Banks,Georgia,18395.0,34.351255,-83.506647,722410,0.0,0.0
393,13.0,13.0,Barrow,Georgia,69367.0,33.993054,-83.7275,722410,4.0,57.66430723542895
394,13.0,15.0,Bartow,Georgia,100157.0,34.208434999999994,-84.829122,722410,2.0,19.968649220723464
395,13.0,17.0,Ben Hill,Georgia,17634.0,31.727638,-83.248636,722410,0.0,0.0
396,13.0,19.0,Berrien,Georgia,19286.0,31.238588,-83.252459,722410,0.0,0.0
397,13.0,21.0,Bibb,Georgia,155547.0,32.832049,-83.687184,722410,11.0,70.71817521392248
398,13.0,23.0,Bleckley,Georgia,13063.0,32.401368,-83.33214,722410,0.0,0.0
399,13.0,25.0,Brantley,Georgia,18411.0,31.216648,-81.96996999999999,722410,1.0,54.31535495084461
400,13.0,27.0,Brooks,Georgia,16243.0,30.842082,-83.54009,722410,0.0,0.0
401,13.0,29.0,Bryan,Georgia,30233.0,31.979537,-81.37595400000001,722410,4.0,132.3057586081434
402,13.0,31.0,Bulloch,Georgia,70217.0,32.417702,-81.76241999999999,722410,0.0,0.0
403,13.0,33.0,Burke,Georgia,23316.0,33.101987,-81.998447,722410,0.0,0.0
404,13.0,35.0,Butts,Georgia,23655.0,33.296102000000005,-83.97000200000001,722410,0.0,0.0
405,13.0,37.0,Calhoun,Georgia,6694.0,31.527411999999998,-84.66844499999999,722410,0.0,0.0
406,13.0,39.0,Camden,Georgia,50513.0,30.814165000000003,-81.635079,722410,3.0,59.39065191138915
407,13.0,43.0,Candler,Georgia,10998.0,32.399861,-82.06230500000001,722410,0.0,0.0
408,13.0,45.0,Carroll,Georgia,110527.0,33.622192999999996,-85.044673,722410,3.0,27.142689116686423
409,13.0,47.0,Catoosa,Georgia,63942.0,34.927795,-85.17282,722410,0.0,0.0
410,13.0,49.0,Charlton,Georgia,12171.0,30.780002000000003,-82.023033,722410,0.0,0.0
411,13.0,51.0,Chatham,Georgia,265128.0,32.036008,-81.126449,722410,48.0,181.0446275006789
412,13.0,53.0,Chattahoochee,Georgia,11267.0,32.344231,-84.899254,722410,0.0,0.0
413,13.0,55.0,Chattooga,Georgia,26015.0,34.495509000000006,-85.344167,722410,1.0,38.43936190659235
414,13.0,57.0,Cherokee,Georgia,214346.0,34.169606,-84.496595,722410,3.0,13.996062441099903
415,13.0,59.0,Clarke,Georgia,116714.0,33.950406,-83.380863,722410,40.0,342.71809722912417
416,13.0,61.0,Clay,Georgia,3183.0,31.633549,-85.013368,722410,0.0,0.0
417,13.0,63.0,Clayton,Georgia,259424.0,33.553383000000004,-84.362238,722410,2.0,7.7093869495497716
418,13.0,65.0,Clinch,Georgia,6798.0,31.017888,-82.740932,722410,0.0,0.0
419,13.0,67.0,Cobb,Georgia,688078.0,33.943253999999996,-84.557878,722410,18.0,26.159824903571977
420,13.0,69.0,Coffee,Georgia,42356.0,31.516,-82.84066700000001,722410,0.0,0.0
421,13.0,71.0,Colquitt,Georgia,45498.0,31.180954999999997,-83.768671,722410,3.0,65.93696426216536
422,13.0,73.0,Columbia,Georgia,124053.0,33.516220000000004,-82.165654,722410,2.0,16.12214134281315
423,13.0,75.0,Cook,Georgia,17212.0,31.149846999999998,-83.424499,722410,0.0,0.0
424,13.0,77.0,Coweta,Georgia,127317.0,33.379117,-84.736399,722410,1.0,7.854410644297305
425,13.0,79.0,Crawford,Georgia,12630.0,32.707681,-83.934002,722410,0.0,0.0
426,13.0,81.0,Crisp,Georgia,23439.0,31.947962,-83.77779100000001,722410,0.0,0.0
427,13.0,83.0,Dade,Georgia,16633.0,34.882709000000006,-85.497004,722410,0.0,0.0
428,13.0,85.0,Dawson,Georgia,22330.0,34.401379999999996,-84.104119,722410,0.0,0.0
429,13.0,87.0,Decatur,Georgia,27842.0,30.888345,-84.57036,722410,0.0,0.0
430,13.0,89.0,DeKalb,Georgia,691893.0,33.789813,-84.248029,722410,36.0,52.031166668834636
431,13.0,91.0,Dodge,Georgia,21796.0,32.212815,-83.175591,722410,0.0,0.0
432,13.0,93.0,Dooly,Georgia,14918.0,32.16758,-83.784195,722410,0.0,0.0
433,13.0,95.0,Dougherty,Georgia,94565.0,31.573426,-84.167625,722410,9.0,95.17263258076454
434,13.0,97.0,Douglas,Georgia,132403.0,33.724923,-84.73464399999999,722410,2.0,15.105397913944548
435,13.0,99.0,Early,Georgia,11008.0,31.331726,-84.916722,722410,0.0,0.0
436,13.0,101.0,Echols,Georgia,4034.0,30.708629,-83.057989,722410,0.0,0.0
437,13.0,103.0,Effingham,Georgia,52250.0,32.291745,-81.299511,722410,1.0,19.138755980861244
438,13.0,105.0,Elbert,Georgia,20166.0,34.126521000000004,-82.87952299999999,722410,0.0,0.0
439,13.0,107.0,Emanuel,Georgia,22598.0,32.58586,-82.307952,722410,0.0,0.0
440,13.0,109.0,Evans,Georgia,11000.0,32.169649,-81.90736700000001,722410,0.0,0.0
441,13.0,111.0,Fannin,Georgia,23682.0,34.901383,-84.313402,722410,0.0,0.0
442,13.0,113.0,Fayette,Georgia,106567.0,33.427941,-84.512414,722410,1.0,9.38376795818593
443,13.0,115.0,Floyd,Georgia,96317.0,34.255796000000004,-85.183164,722410,0.0,0.0
444,13.0,117.0,Forsyth,Georgia,175511.0,34.19492,-84.144322,722410,0.0,0.0
445,13.0,119.0,Franklin,Georgia,22084.0,34.377334999999995,-83.186079,722410,0.0,0.0
446,13.0,121.0,Fulton,Georgia,920581.0,33.836086,-84.39364499999999,722410,104.0,112.97213390239425
447,13.0,123.0,Gilmer,Georgia,28292.0,34.677248999999996,-84.483646,722410,1.0,35.345680757811394
448,13.0,125.0,Glascock,Georgia,3082.0,33.235927000000004,-82.609847,722410,0.0,0.0
449,13.0,127.0,Glynn,Georgia,79626.0,31.202697999999998,-81.486488,722410,8.0,100.46969582799588
450,13.0,129.0,Gordon,Georgia,55186.0,34.498326,-84.908795,722410,0.0,0.0
451,13.0,131.0,Grady,Georgia,25011.0,30.882764,-84.214288,722410,0.0,0.0
452,13.0,133.0,Greene,Georgia,15994.0,33.549876,-83.166093,722410,0.0,0.0
453,13.0,135.0,Gwinnett,Georgia,805321.0,33.951956,-84.057963,722410,14.0,17.384372194441717
454,13.0,137.0,Habersham,Georgia,43041.0,34.56516,-83.54162600000001,722410,0.0,0.0
455,13.0,139.0,Hall,Georgia,179684.0,34.275205,-83.844712,722410,0.0,0.0
456,13.0,141.0,Hancock,Georgia,9429.0,33.255825,-83.00204699999999,722410,1.0,106.05578534309046
457,13.0,143.0,Haralson,Georgia,28780.0,33.76192,-85.18547,722410,0.0,0.0
458,13.0,145.0,Harris,Georgia,32024.0,32.699933,-84.895034,722410,0.0,0.0
459,13.0,147.0,Hart,Georgia,25213.0,34.355413,-82.96495300000001,722410,0.0,0.0
460,13.0,149.0,Heard,Georgia,11834.0,33.309334,-85.1134,722410,0.0,0.0
461,13.0,151.0,Henry,Georgia,203922.0,33.475842,-84.175416,722410,3.0,14.711507341042164
462,13.0,153.0,Houston,Georgia,139900.0,32.571603,-83.66335699999999,722410,9.0,64.33166547533952
463,13.0,155.0,Irwin,Georgia,9538.0,31.604646999999996,-83.280834,722410,0.0,0.0
464,13.0,157.0,Jackson,Georgia,60485.0,34.132059000000005,-83.584805,722410,0.0,0.0
465,13.0,159.0,Jasper,Georgia,13900.0,33.356251,-83.72434100000001,722410,0.0,0.0
466,13.0,161.0,Jeff Davis,Georgia,15068.0,31.848776,-82.600696,722410,0.0,0.0
467,13.0,163.0,Jefferson,Georgia,16930.0,33.063551000000004,-82.407657,722410,0.0,0.0
468,13.0,165.0,Jenkins,Georgia,8340.0,32.794618,-81.950133,722410,0.0,0.0
469,13.0,167.0,Johnson,Georgia,9980.0,32.701199,-82.679535,722410,0.0,0.0
470,13.0,169.0,Jones,Georgia,28669.0,32.962134000000006,-83.54514,722410,0.0,0.0
471,13.0,171.0,Lamar,Georgia,18317.0,33.080020000000005,-84.1544,722410,0.0,0.0
472,13.0,173.0,Lanier,Georgia,10078.0,31.035393,-83.090886,722410,0.0,0.0
473,13.0,175.0,Laurens,Georgia,48434.0,32.516487,-82.92613100000001,722410,2.0,41.293306355039846
474,13.0,177.0,Lee,Georgia,28298.0,31.681194,-84.173396,722410,0.0,0.0
475,13.0,179.0,Liberty,Georgia,63453.0,31.827765999999997,-81.578482,722410,5.0,78.79848076529085
476,13.0,181.0,Lincoln,Georgia,7996.0,33.781126,-82.44638,722410,0.0,0.0
477,13.0,183.0,Long,Georgia,14464.0,31.778807,-81.733663,722410,0.0,0.0
478,13.0,185.0,Lowndes,Georgia,109233.0,30.857006,-83.280221,722410,8.0,73.23794091529116
479,13.0,187.0,Lumpkin,Georgia,29966.0,34.524951,-83.986879,722410,0.0,0.0
480,13.0,189.0,McDuffie,Georgia,21875.0,33.459617,-82.46986600000001,722410,2.0,91.42857142857143
481,13.0,191.0,McIntosh,Georgia,14333.0,31.47526,-81.407579,722410,0.0,0.0
482,13.0,193.0,Macon,Georgia,14740.0,32.325041999999996,-84.038814,722410,0.0,0.0
483,13.0,195.0,Madison,Georgia,28120.0,34.104614,-83.24068,722410,1.0,35.56187766714083
484,13.0,197.0,Marion,Georgia,8742.0,32.380907,-84.523557,722410,0.0,0.0
485,13.0,199.0,Meriwether,Georgia,21992.0,33.008863,-84.67284599999999,722410,0.0,0.0
486,13.0,201.0,Miller,Georgia,6125.0,31.159722,-84.73719799999999,722410,0.0,0.0
487,13.0,205.0,Mitchell,Georgia,23498.0,31.216853000000004,-84.172094,722410,0.0,0.0
488,13.0,207.0,Monroe,Georgia,26424.0,33.038194,-83.906823,722410,0.0,0.0
489,13.0,209.0,Montgomery,Georgia,9123.0,32.167319,-82.533261,722410,0.0,0.0
490,13.0,211.0,Morgan,Georgia,17868.0,33.600243,-83.485957,722410,0.0,0.0
491,13.0,213.0,Murray,Georgia,39628.0,34.782329,-84.792066,722410,0.0,0.0
492,13.0,215.0,Muscogee,Georgia,189885.0,32.492289,-84.930634,722410,25.0,131.6586354899018
493,13.0,217.0,Newton,Georgia,99958.0,33.569520000000004,-83.896609,722410,0.0,0.0
494,13.0,219.0,Oconee,Georgia,32808.0,33.875278,-83.45794599999999,722410,0.0,0.0
495,13.0,221.0,Oglethorpe,Georgia,14899.0,33.916594,-83.14492,722410,1.0,67.11859856366199
496,13.0,223.0,Paulding,Georgia,142324.0,33.905688,-84.816609,722410,0.0,0.0
497,13.0,225.0,Peach,Georgia,27695.0,32.584826,-83.82958,722410,0.0,0.0
498,13.0,227.0,Pickens,Georgia,29431.0,34.455892,-84.442301,722410,0.0,0.0
499,13.0,229.0,Pierce,Georgia,18758.0,31.314668,-82.240429,722410,1.0,53.31058748267406
500,13.0,231.0,Pike,Georgia,17869.0,33.103227000000004,-84.366796,722410,1.0,55.9628406737926
501,13.0,233.0,Polk,Georgia,41475.0,34.010878000000005,-85.176771,722410,0.0,0.0
502,13.0,235.0,Pulaski,Georgia,12010.0,32.275344,-83.48034200000001,722410,1.0,83.26394671107411
503,13.0,237.0,Putnam,Georgia,21218.0,33.317059,-83.339663,722410,1.0,47.12979545668772
504,13.0,239.0,Quitman,Georgia,2513.0,31.859377000000002,-85.077727,722410,0.0,0.0
505,13.0,241.0,Rabun,Georgia,16276.0,34.87903,-83.407223,722410,1.0,61.44015728680265
506,13.0,243.0,Randolph,Georgia,7719.0,31.760403000000004,-84.758026,722410,0.0,0.0
507,13.0,245.0,Richmond,Georgia,200549.0,33.426859,-82.049444,722410,30.0,149.58937715969665
508,13.0,247.0,Rockdale,Georgia,85215.0,33.642043,-84.020894,722410,1.0,11.735023176670774
509,13.0,249.0,Schley,Georgia,5010.0,32.241549,-84.306781,722410,0.0,0.0
510,13.0,251.0,Screven,Georgia,14593.0,32.722842,-81.627328,722410,0.0,0.0
511,13.0,253.0,Seminole,Georgia,8729.0,30.972496000000003,-84.868027,722410,0.0,0.0
512,13.0,255.0,Spalding,Georgia,64073.0,33.258051,-84.273339,722410,0.0,0.0
513,13.0,257.0,Stephens,Georgia,26175.0,34.556903999999996,-83.28868100000001,722410,0.0,0.0
514,13.0,259.0,Stewart,Georgia,6058.0,32.069334999999995,-84.76451899999999,722410,0.0,0.0
515,13.0,261.0,Sumter,Georgia,32819.0,32.059981,-84.221818,722410,0.0,0.0
516,13.0,263.0,Talbot,Georgia,6865.0,32.703124,-84.582116,722410,0.0,0.0
517,13.0,265.0,Taliaferro,Georgia,1717.0,33.5688,-82.88576,722410,0.0,0.0
518,13.0,267.0,Tattnall,Georgia,25520.0,32.043908,-82.052217,722410,0.0,0.0
519,13.0,269.0,Taylor,Georgia,8906.0,32.560542,-84.21508299999999,722410,0.0,0.0
520,13.0,271.0,Telfair,Georgia,16500.0,32.01562,-82.892471,722410,0.0,0.0
521,13.0,273.0,Terrell,Georgia,9315.0,31.772157,-84.42886,722410,0.0,0.0
522,13.0,275.0,Thomas,Georgia,44720.0,30.868962,-83.948411,722410,1.0,22.361359570661897
523,13.0,277.0,Tift,Georgia,40118.0,31.454362,-83.515048,722410,1.0,24.926466922578392
524,13.0,279.0,Toombs,Georgia,27223.0,32.183935999999996,-82.36702199999999,722410,2.0,73.46728868971091
525,13.0,281.0,Towns,Georgia,10471.0,34.938691999999996,-83.782961,722410,0.0,0.0
526,13.0,283.0,Treutlen,Georgia,6885.0,32.387046999999995,-82.589718,722410,0.0,0.0
527,13.0,285.0,Troup,Georgia,67044.0,33.036737,-85.031746,722410,1.0,14.915577829485114
528,13.0,287.0,Turner,Georgia,8930.0,31.700824,-83.636891,722410,0.0,0.0
529,13.0,289.0,Twiggs,Georgia,9023.0,32.703662,-83.416286,722410,0.0,0.0
530,13.0,291.0,Union,Georgia,21356.0,34.874243,-84.002286,722410,0.0,0.0
531,13.0,293.0,Upson,Georgia,27153.0,32.907469,-84.324382,722410,1.0,36.82834309284426
532,13.0,295.0,Walker,Georgia,68756.0,34.83654,-85.293376,722410,1.0,14.54418523474315
533,13.0,297.0,Walton,Georgia,83768.0,33.795381,-83.784266,722410,0.0,0.0
534,13.0,299.0,Ware,Georgia,36312.0,31.22682,-82.383943,722410,1.0,27.53910552985239
535,13.0,301.0,Warren,Georgia,5834.0,33.407596000000005,-82.66284399999999,722410,0.0,0.0
536,13.0,303.0,Washington,Georgia,21187.0,32.962029,-82.77340600000001,722410,0.0,0.0
537,13.0,305.0,Wayne,Georgia,30099.0,31.611857,-81.919105,722410,0.0,0.0
538,13.0,307.0,Webster,Georgia,2799.0,32.049343,-84.56065699999999,722410,0.0,0.0
539,13.0,309.0,Wheeler,Georgia,7421.0,32.146558,-82.751307,722410,0.0,0.0
540,13.0,311.0,White,Georgia,27144.0,34.601048,-83.744309,722410,1.0,36.84055408193339
541,13.0,313.0,Whitfield,Georgia,102599.0,34.792742,-84.965686,722410,1.0,9.74668369087418
542,13.0,315.0,Wilcox,Georgia,9255.0,31.975167,-83.40565699999999,722410,0.0,0.0
543,13.0,317.0,Wilkes,Georgia,10593.0,33.755364,-82.753524,722410,0.0,0.0
544,13.0,319.0,Wilkinson,Georgia,9563.0,32.8443,-83.239491,722410,1.0,104.56969570218551
545,13.0,321.0,Worth,Georgia,21679.0,31.535712,-83.861186,722410,0.0,0.0
546,15.0,1.0,Hawaii,Hawaii,185079.0,19.672837,-155.421895,722410,20.0,108.06196272942906
547,15.0,3.0,Honolulu,Hawaii,953207.0,21.372464,-157.913673,722410,184.0,193.03257319763702
548,15.0,5.0,Kalawao,Hawaii,90.0,21.188495,-156.979972,722410,0.0,0.0
549,15.0,7.0,Kauai,Hawaii,67091.0,22.021022,-159.442112,722410,3.0,44.71538656451685
550,15.0,9.0,Maui,Hawaii,154834.0,20.863747,-156.49381599999998,722410,20.0,129.1705956056163
551,16.0,1.0,Ada,Idaho,392365.0,43.611186,-116.304409,722410,68.0,173.30801677009927
552,16.0,3.0,Adams,Idaho,3976.0,44.848619,-116.375947,722410,3.0,754.5271629778672
553,16.0,5.0,Bannock,Idaho,82839.0,42.869212,-112.423672,722410,22.0,265.5753932326561
554,16.0,7.0,Bear Lake,Idaho,5986.0,42.306336,-111.341632,722410,0.0,0.0
555,16.0,9.0,Benewah,Idaho,9285.0,47.271692,-116.63973600000001,722410,3.0,323.10177705977384
556,16.0,11.0,Bingham,Idaho,45607.0,43.217372,-112.355721,722410,6.0,131.5587519459732
557,16.0,13.0,Blaine,Idaho,21376.0,43.541366,-114.29427700000001,722410,7.0,327.4700598802395
558,16.0,15.0,Boise,Idaho,7028.0,43.899702000000005,-115.993695,722410,1.0,142.28799089356858
559,16.0,17.0,Bonner,Idaho,40877.0,48.235649,-116.630982,722410,16.0,391.4181569097537
560,16.0,19.0,Bonneville,Idaho,104234.0,43.494876,-111.997623,722410,14.0,134.31317996047355
561,16.0,21.0,Boundary,Idaho,10972.0,48.705964,-116.302851,722410,0.0,0.0
562,16.0,23.0,Butte,Idaho,2891.0,43.699096999999995,-113.29456200000001,722410,1.0,345.90107229332415
563,16.0,25.0,Camas,Idaho,1117.0,43.350524,-114.756451,722410,0.0,0.0
564,16.0,27.0,Canyon,Idaho,188923.0,43.611438,-116.627276,722410,17.0,89.98374999338354
565,16.0,29.0,Caribou,Idaho,6963.0,42.643778000000005,-111.65606299999999,722410,0.0,0.0
566,16.0,31.0,Cassia,Idaho,22952.0,42.482791,-113.74183300000001,722410,3.0,130.70756361101428
567,16.0,33.0,Clark,Idaho,982.0,44.185815000000005,-112.278608,722410,0.0,0.0
568,16.0,35.0,Clearwater,Idaho,8761.0,46.485240000000005,-116.185221,722410,4.0,456.5688848304988
569,16.0,37.0,Custer,Idaho,4368.0,44.285168,-114.04803500000001,722410,2.0,457.87545787545787
570,16.0,39.0,Elmore,Idaho,27038.0,43.115320000000004,-115.68440700000001,722410,9.0,332.86485686811153
571,16.0,41.0,Franklin,Idaho,12786.0,42.0993,-111.872202,722410,1.0,78.21054278116691
572,16.0,43.0,Fremont,Idaho,13242.0,44.014844000000004,-111.61546399999999,722410,2.0,151.0345869204048
573,16.0,45.0,Gem,Idaho,16719.0,43.884322999999995,-116.506739,722410,3.0,179.43656917279742
574,16.0,47.0,Gooding,Idaho,15464.0,42.852717,-114.75106699999999,722410,5.0,323.33160889808585
575,16.0,49.0,Idaho,Idaho,16267.0,45.974127,-116.10656599999999,722410,7.0,430.31905083912216
576,16.0,51.0,Jefferson,Idaho,26140.0,43.691123,-111.969394,722410,2.0,76.51109410864575
577,16.0,53.0,Jerome,Idaho,22374.0,42.698446999999994,-114.46266899999999,722410,5.0,223.47367480110844
578,16.0,55.0,Kootenai,Idaho,138494.0,47.73713,-116.832581,722410,35.0,252.7185293225699
579,16.0,57.0,Latah,Idaho,37244.0,46.742968,-116.93443400000001,722410,13.0,349.04951133068414
580,16.0,59.0,Lemhi,Idaho,7936.0,45.127412,-113.86153,722410,3.0,378.0241935483871
581,16.0,61.0,Lewis,Idaho,3821.0,46.238065999999996,-116.25738999999999,722410,4.0,1046.8463752944256
582,16.0,63.0,Lincoln,Idaho,5208.0,42.973467,-114.32606899999999,722410,1.0,192.01228878648234
583,16.0,65.0,Madison,Idaho,37536.0,43.819114,-111.794073,722410,0.0,0.0
584,16.0,67.0,Minidoka,Idaho,20069.0,42.613265999999996,-113.712227,722410,5.0,249.14046539438934
585,16.0,69.0,Nez Perce,Idaho,39265.0,46.394126,-116.95046200000002,722410,14.0,356.551636317331
586,16.0,71.0,Oneida,Idaho,4286.0,42.181568,-112.30127399999999,722410,1.0,233.31777881474568
587,16.0,73.0,Owyhee,Idaho,11526.0,43.376748,-116.68155800000001,722410,7.0,607.3225750477181
588,16.0,75.0,Payette,Idaho,22623.0,44.020334000000005,-116.894281,722410,5.0,221.0140122883791
589,16.0,77.0,Power,Idaho,7817.0,42.775001,-112.829004,722410,3.0,383.7789433286427
590,16.0,79.0,Shoshone,Idaho,12765.0,47.514637,-116.085925,722410,13.0,1018.409714061888
591,16.0,81.0,Teton,Idaho,10170.0,43.692977,-111.125546,722410,1.0,98.32841691248771
592,16.0,83.0,Twin Falls,Idaho,77230.0,42.558563,-114.504002,722410,17.0,220.12171435970478
593,16.0,85.0,Valley,Idaho,9862.0,44.758677,-116.073719,722410,5.0,506.99655242344346
594,16.0,87.0,Washington,Idaho,10198.0,44.297897999999996,-116.919922,722410,7.0,686.4090998234948
595,17.0,1.0,Adams,Illinois,67103.0,39.943826,-91.328948,722410,33.0,491.78129144747624
596,17.0,3.0,Alexander,Illinois,8238.0,37.149251,-89.289666,722410,4.0,485.55474629764507
597,17.0,5.0,Bond,Illinois,17768.0,38.884622,-89.432819,722410,5.0,281.4047726249437
598,17.0,7.0,Boone,Illinois,54165.0,42.293981,-88.851989,722410,7.0,129.2347456844826
599,17.0,9.0,Brown,Illinois,6937.0,39.964815,-90.746466,722410,3.0,432.4636009802508
600,17.0,11.0,Bureau,Illinois,34978.0,41.382964,-89.42378000000001,722410,16.0,457.43038481331126
601,17.0,13.0,Calhoun,Illinois,5089.0,39.12353,-90.63801,722410,6.0,1179.0135586559245
602,17.0,15.0,Carroll,Illinois,15387.0,42.071878999999996,-89.963255,722410,10.0,649.8992656138299
603,17.0,17.0,Cass,Illinois,13642.0,39.979865999999994,-90.319209,722410,7.0,513.1212432194693
604,17.0,19.0,Champaign,Illinois,201081.0,40.128073,-88.233083,722410,58.0,288.44097652189913
605,17.0,21.0,Christian,Illinois,34800.0,39.525298,-89.254627,722410,13.0,373.5632183908046
606,17.0,23.0,Clark,Illinois,16335.0,39.351007,-87.800246,722410,3.0,183.65472910927457
607,17.0,25.0,Clay,Illinois,13815.0,38.716132,-88.490134,722410,4.0,289.54035468693445
608,17.0,27.0,Clinton,Illinois,37762.0,38.587753,-89.472099,722410,27.0,715.004501880197
609,17.0,29.0,Coles,Illinois,53873.0,39.487297,-88.258277,722410,26.0,482.6165240472964
610,17.0,31.0,Cook,Illinois,5194675.0,41.865937,-87.757714,722410,962.0,185.18964131538547
611,17.0,33.0,Crawford,Illinois,19817.0,39.00569,-87.748024,722410,6.0,302.77034869051823
612,17.0,35.0,Cumberland,Illinois,11048.0,39.275965,-88.28088699999999,722410,0.0,0.0
613,17.0,37.0,DeKalb,Illinois,105160.0,41.927172,-88.72946,722410,16.0,152.14910612400152
614,17.0,39.0,De Witt,Illinois,16561.0,40.171701,-88.908946,722410,7.0,422.6797898677616
615,17.0,41.0,Douglas,Illinois,19980.0,39.766826,-88.279794,722410,9.0,450.45045045045043
616,17.0,43.0,DuPage,Illinois,916924.0,41.849815,-88.071617,722410,71.0,77.43280795354903
617,17.0,45.0,Edgar,Illinois,18576.0,39.635942,-87.71537,722410,2.0,107.66580534022394
618,17.0,47.0,Edwards,Illinois,6721.0,38.402493,-88.04063000000001,722410,0.0,0.0
619,17.0,49.0,Effingham,Illinois,34242.0,39.094722999999995,-88.576033,722410,17.0,496.4663279014076
620,17.0,51.0,Fayette,Illinois,22140.0,38.997828999999996,-89.033295,722410,3.0,135.50135501355012
621,17.0,53.0,Ford,Illinois,14081.0,40.527421999999994,-88.217453,722410,4.0,284.0707336126696
622,17.0,55.0,Franklin,Illinois,39561.0,37.962134999999996,-88.953316,722410,11.0,278.0516164909886
623,17.0,57.0,Fulton,Illinois,37069.0,40.521963,-90.119357,722410,23.0,620.4645391027543
624,17.0,59.0,Gallatin,Illinois,5589.0,37.770001,-88.238563,722410,3.0,536.7686527106817
625,17.0,61.0,Greene,Illinois,13886.0,39.372240000000005,-90.373465,722410,7.0,504.1048538095924
626,17.0,63.0,Grundy,Illinois,50063.0,41.345273999999996,-88.347437,722410,18.0,359.54697081677085
627,17.0,65.0,Hamilton,Illinois,8457.0,38.092156,-88.55774699999999,722410,0.0,0.0
628,17.0,67.0,Hancock,Illinois,19104.0,40.425725,-91.203133,722410,9.0,471.10552763819095
629,17.0,69.0,Hardin,Illinois,4320.0,37.478453,-88.290573,722410,3.0,694.4444444444445
630,17.0,71.0,Henderson,Illinois,7331.0,40.828841,-90.9448,722410,7.0,954.8492702223434
631,17.0,73.0,Henry,Illinois,50486.0,41.348782,-90.134757,722410,15.0,297.1120706730579
632,17.0,75.0,Iroquois,Illinois,29718.0,40.763597,-87.834391,722410,8.0,269.19711959082036
633,17.0,77.0,Jackson,Illinois,60218.0,37.747793,-89.27403100000001,722410,21.0,348.73293699558275
634,17.0,79.0,Jasper,Illinois,9698.0,39.003765,-88.159885,722410,3.0,309.3421323984326
635,17.0,81.0,Jefferson,Illinois,38827.0,38.308488,-88.91080799999999,722410,6.0,154.53164035336235
636,17.0,83.0,Jersey,Illinois,22985.0,39.072862,-90.32042,722410,14.0,609.0928866652165
637,17.0,85.0,Jo Daviess,Illinois,22678.0,42.411324,-90.305944,722410,25.0,1102.3899814798483
638,17.0,87.0,Johnson,Illinois,12582.0,37.474558,-88.882358,722410,1.0,79.47862025115244
639,17.0,89.0,Kane,Illinois,515269.0,41.918110999999996,-88.331264,722410,65.0,126.14770149184214
640,17.0,91.0,Kankakee,Illinois,113449.0,41.148582,-87.85086700000001,722410,25.0,220.36333506685824
641,17.0,93.0,Kendall,Illinois,114736.0,41.663724,-88.37906600000001,722410,9.0,78.44094268581787
642,17.0,95.0,Knox,Illinois,52919.0,40.937032,-90.328601,722410,32.0,604.6977456112171
643,17.0,97.0,Lake,Illinois,703462.0,42.313072,-87.96945799999999,722410,70.0,99.50786254268176
644,17.0,99.0,LaSalle,Illinois,113924.0,41.350798,-88.895997,722410,56.0,491.55577402478843
645,17.0,101.0,Lawrence,Illinois,16833.0,38.718291,-87.748328,722410,2.0,118.81423394522663
646,17.0,103.0,Lee,Illinois,36031.0,41.810241999999995,-89.398207,722410,22.0,610.5853292997696
647,17.0,105.0,Livingston,Illinois,38950.0,40.907044,-88.573187,722410,14.0,359.43517329910145
648,17.0,107.0,Logan,Illinois,30305.0,40.140775,-89.36150500000001,722410,13.0,428.9721168124072
649,17.0,109.0,McDonough,Illinois,32612.0,40.469471999999996,-90.669344,722410,10.0,306.63559425978167
650,17.0,111.0,McHenry,Illinois,308760.0,42.271471999999996,-88.34988,722410,46.0,148.98302888975257
651,17.0,113.0,McLean,Illinois,169572.0,40.494122999999995,-88.954977,722410,36.0,212.29920033967872
652,17.0,115.0,Macon,Illinois,110768.0,39.851176,-88.947076,722410,25.0,225.69695218835764
653,17.0,117.0,Macoupin,Illinois,47765.0,39.19403,-89.87703499999999,722410,26.0,544.3316235737465
654,17.0,119.0,Madison,Illinois,269282.0,38.801396000000004,-90.018097,722410,99.0,367.64432825068144
655,17.0,121.0,Marion,Illinois,39437.0,38.590709999999994,-89.01696700000001,722410,16.0,405.7103735071126
656,17.0,123.0,Marshall,Illinois,12640.0,41.043034000000006,-89.315638,722410,8.0,632.9113924050633
657,17.0,125.0,Mason,Illinois,14666.0,40.286475,-89.898924,722410,12.0,818.219009954998
658,17.0,127.0,Massac,Illinois,15429.0,37.178592,-88.714109,722410,3.0,194.43904335990666
659,17.0,129.0,Menard,Illinois,12705.0,39.99726,-89.79950699999999,722410,4.0,314.8366784730421
660,17.0,131.0,Mercer,Illinois,16434.0,41.214043,-90.687167,722410,7.0,425.94620907873923
661,17.0,133.0,Monroe,Illinois,32957.0,38.358529,-90.171163,722410,10.0,303.425675880693
662,17.0,135.0,Montgomery,Illinois,30104.0,39.198961,-89.505319,722410,12.0,398.6181238373638
663,17.0,137.0,Morgan,Illinois,35547.0,39.718154999999996,-90.231161,722410,12.0,337.5812304835851
664,17.0,139.0,Moultrie,Illinois,14846.0,39.631979,-88.614419,722410,5.0,336.7910548295837
665,17.0,141.0,Ogle,Illinois,53497.0,42.028653000000006,-89.256098,722410,13.0,243.0042806138662
666,17.0,143.0,Peoria,Illinois,186494.0,40.742915,-89.638993,722410,78.0,418.2440185743241
667,17.0,145.0,Perry,Illinois,22350.0,38.058514,-89.323862,722410,5.0,223.71364653243847
668,17.0,147.0,Piatt,Illinois,16729.0,40.007008,-88.581585,722410,7.0,418.43505290214597
669,17.0,149.0,Pike,Illinois,16430.0,39.621311,-90.859127,722410,8.0,486.91418137553256
670,17.0,151.0,Pope,Illinois,4470.0,37.39893,-88.54991,722410,1.0,223.71364653243847
671,17.0,153.0,Pulaski,Illinois,6161.0,37.199543,-89.13475,722410,0.0,0.0
672,17.0,155.0,Putnam,Illinois,6006.0,41.229306,-89.270945,722410,4.0,666.000666000666
673,17.0,157.0,Randolph,Illinois,33476.0,38.055541,-89.809249,722410,13.0,388.33791372923884
674,17.0,159.0,Richland,Illinois,16233.0,38.725943,-88.08831500000001,722410,3.0,184.80872297172428
675,17.0,161.0,Rock Island,Illinois,147546.0,41.489142,-90.504005,722410,64.0,433.7630298347634
676,17.0,163.0,St. Clair,Illinois,270056.0,38.550219,-90.000674,722410,104.0,385.10531149095
677,17.0,165.0,Saline,Illinois,24913.0,37.754785999999996,-88.536395,722410,4.0,160.55874443061856
678,17.0,167.0,Sangamon,Illinois,197465.0,39.772757,-89.652867,722410,70.0,354.4932013268174
679,17.0,169.0,Schuyler,Illinois,7544.0,40.13118,-90.568639,722410,2.0,265.1113467656416
680,17.0,171.0,Scott,Illinois,5355.0,39.645737,-90.462754,722410,2.0,373.4827264239029
681,17.0,173.0,Shelby,Illinois,22363.0,39.396539000000004,-88.802073,722410,7.0,313.01703707016054
682,17.0,175.0,Stark,Illinois,5994.0,41.098377,-89.792451,722410,0.0,0.0
683,17.0,177.0,Stephenson,Illinois,47711.0,42.324139,-89.644541,722410,13.0,272.47385298987655
684,17.0,179.0,Tazewell,Illinois,135394.0,40.602899,-89.534104,722410,54.0,398.8359897779813
685,17.0,181.0,Union,Illinois,17808.0,37.468579999999996,-89.23650500000001,722410,3.0,168.4636118598383
686,17.0,183.0,Vermilion,Illinois,81625.0,40.149683,-87.65480600000001,722410,24.0,294.02756508422664
687,17.0,185.0,Wabash,Illinois,11947.0,38.431283,-87.789625,722410,1.0,83.70302167908261
688,17.0,187.0,Warren,Illinois,17707.0,40.890638,-90.636371,722410,8.0,451.7987236686056
689,17.0,189.0,Washington,Illinois,14716.0,38.359407,-89.39393000000001,722410,8.0,543.6259853220984
690,17.0,191.0,Wayne,Illinois,16760.0,38.406869,-88.422496,722410,0.0,0.0
691,17.0,193.0,White,Illinois,14665.0,38.089959,-88.19224100000001,722410,1.0,68.18956699624957
692,17.0,195.0,Whiteside,Illinois,58498.0,41.780798,-89.82325300000001,722410,24.0,410.2704365961229
693,17.0,197.0,Will,Illinois,677560.0,41.565138,-88.057232,722410,92.0,135.78133301847808
694,17.0,199.0,Williamson,Illinois,66357.0,37.755675,-88.974979,722410,15.0,226.0500022605
695,17.0,201.0,Winnebago,Illinois,295266.0,42.307128000000006,-89.06224,722410,67.0,226.91403683458307
696,17.0,203.0,Woodford,Illinois,38664.0,40.771239,-89.29030999999999,722410,8.0,206.91082143596108
697,18.0,1.0,Adams,Indiana,34387.0,40.753766999999996,-84.93431700000001,722410,4.0,116.3230290516765
698,18.0,3.0,Allen,Indiana,355329.0,41.098642,-85.12232900000001,722410,72.0,202.6291127377726
699,18.0,5.0,Bartholomew,Indiana,76794.0,39.216784999999994,-85.902794,722410,8.0,104.17480532333255
700,18.0,7.0,Benton,Indiana,8854.0,40.575066,-87.291433,722410,1.0,112.94330246216398
701,18.0,9.0,Blackford,Indiana,12766.0,40.469726,-85.34419,722410,4.0,313.33228889237034
702,18.0,11.0,Boone,Indiana,56640.0,40.013009000000004,-86.398737,722410,7.0,123.58757062146893
703,18.0,13.0,Brown,Indiana,15242.0,39.236241,-86.20969000000001,722410,1.0,65.60818790185016
704,18.0,15.0,Carroll,Indiana,20155.0,40.578983,-86.600098,722410,4.0,198.46192011907715
705,18.0,17.0,Cass,Indiana,38966.0,40.747104,-86.33959200000001,722410,12.0,307.9607863265411
706,18.0,19.0,Clark,Indiana,110232.0,38.371546,-85.732035,722410,11.0,99.78953479933232
707,18.0,21.0,Clay,Indiana,26890.0,39.469066,-87.124217,722410,4.0,148.75418371141689
708,18.0,23.0,Clinton,Indiana,33224.0,40.298201,-86.51230699999999,722410,5.0,150.4936190705514
709,18.0,25.0,Crawford,Indiana,10713.0,38.313435,-86.42344399999999,722410,0.0,0.0
710,18.0,27.0,Daviess,Indiana,31648.0,38.696963000000004,-87.098076,722410,12.0,379.17087967644085
711,18.0,29.0,Dearborn,Indiana,50047.0,39.14462,-84.920935,722410,10.0,199.8121765540392
712,18.0,31.0,Decatur,Indiana,25740.0,39.319975,-85.49421099999999,722410,5.0,194.25019425019426
713,18.0,33.0,DeKalb,Indiana,42223.0,41.378214,-85.034285,722410,9.0,213.15396821637498
714,18.0,35.0,Delaware,Indiana,117671.0,40.20517,-85.401962,722410,31.0,263.4463886599077
715,18.0,37.0,Dubois,Indiana,41889.0,38.357067,-86.91403199999999,722410,9.0,214.85354150254244
716,18.0,39.0,Elkhart,Indiana,197559.0,41.637679,-85.906728,722410,26.0,131.6062543341483
717,18.0,41.0,Fayette,Indiana,24277.0,39.640791,-85.14749599999999,722410,7.0,288.3387568480455
718,18.0,43.0,Floyd,Indiana,74578.0,38.321514,-85.855645,722410,7.0,93.86146048432514
719,18.0,45.0,Fountain,Indiana,17240.0,40.152089000000004,-87.271946,722410,7.0,406.0324825986079
720,18.0,47.0,Franklin,Indiana,23087.0,39.401885,-85.070265,722410,3.0,129.94325811062504
721,18.0,49.0,Fulton,Indiana,20836.0,41.059389,-86.220078,722410,6.0,287.9631407179881
722,18.0,51.0,Gibson,Indiana,33503.0,38.30918,-87.546685,722410,8.0,238.78458645494433
723,18.0,53.0,Grant,Indiana,70061.0,40.525253,-85.644413,722410,18.0,256.9189706113244
724,18.0,55.0,Greene,Indiana,33165.0,39.052316,-86.992172,722410,5.0,150.76134479119554
725,18.0,57.0,Hamilton,Indiana,274569.0,40.002534000000004,-86.059737,722410,18.0,65.5572916097593
726,18.0,59.0,Hancock,Indiana,70002.0,39.811662,-85.824125,722410,2.0,28.57061226822091
727,18.0,61.0,Harrison,Indiana,39364.0,38.233745,-86.097474,722410,2.0,50.8078447312265
728,18.0,63.0,Hendricks,Indiana,145448.0,39.772784,-86.41505500000001,722410,8.0,55.002475111380015
729,18.0,65.0,Henry,Indiana,49462.0,39.928644,-85.403678,722410,6.0,121.30524443006753
730,18.0,67.0,Howard,Indiana,82752.0,40.470704,-86.132959,722410,23.0,277.938901778809
731,18.0,69.0,Huntington,Indiana,37124.0,40.870224,-85.487085,722410,12.0,323.2410300614158
732,18.0,71.0,Jackson,Indiana,42376.0,38.925896,-85.942654,722410,8.0,188.78610534264678
733,18.0,73.0,Jasper,Indiana,33478.0,41.075783,-87.149436,722410,5.0,149.3518131310114
734,18.0,75.0,Jay,Indiana,21253.0,40.428424,-85.033025,722410,3.0,141.15654260574976
735,18.0,77.0,Jefferson,Indiana,32428.0,38.758956,-85.43369200000001,722410,5.0,154.18773899099543
736,18.0,79.0,Jennings,Indiana,28525.0,39.005169,-85.648821,722410,1.0,35.056967572305
737,18.0,81.0,Johnson,Indiana,139654.0,39.553276000000004,-86.113609,722410,9.0,64.4449854640755
738,18.0,83.0,Knox,Indiana,38440.0,38.698623,-87.45768000000001,722410,11.0,286.16024973985435
739,18.0,85.0,Kosciusko,Indiana,77358.0,41.266796,-85.830484,722410,14.0,180.9767574135836
740,18.0,87.0,LaGrange,Indiana,37128.0,41.6324,-85.46117,722410,3.0,80.80155138978668
741,18.0,89.0,Lake,Indiana,496005.0,41.526226,-87.40815500000001,722410,120.0,241.93304502978802
742,18.0,91.0,LaPorte,Indiana,111467.0,41.631837,-86.790977,722410,30.0,269.1379511424906
743,18.0,93.0,Lawrence,Indiana,46134.0,38.846385999999995,-86.49571800000001,722410,5.0,108.37993670611696
744,18.0,95.0,Madison,Indiana,131636.0,40.11412,-85.708901,722410,17.0,129.14400316022974
745,18.0,97.0,Marion,Indiana,903393.0,39.791299,-86.13590500000001,722410,201.0,222.49452895915732
746,18.0,99.0,Marshall,Indiana,47051.0,41.347248,-86.27308199999999,722410,7.0,148.77473379949416
747,18.0,101.0,Martin,Indiana,10334.0,38.678357,-86.848113,722410,2.0,193.53590090961873
748,18.0,103.0,Miami,Indiana,36903.0,40.730651,-86.073933,722410,6.0,162.58840744654907
749,18.0,105.0,Monroe,Indiana,137974.0,39.162879,-86.537697,722410,15.0,108.71613492397118
750,18.0,107.0,Montgomery,Indiana,38124.0,40.035109999999996,-86.90006,722410,7.0,183.61137341307315
751,18.0,109.0,Morgan,Indiana,68894.0,39.512251,-86.39931800000001,722410,2.0,29.030104218074143
752,18.0,111.0,Newton,Indiana,14244.0,40.994087,-87.380385,722410,4.0,280.8199943836001
753,18.0,113.0,Noble,Indiana,47536.0,41.413892,-85.391205,722410,8.0,168.29350387075058
754,18.0,115.0,Ohio,Indiana,6128.0,38.954549,-84.911295,722410,1.0,163.18537859007833
755,18.0,117.0,Orange,Indiana,19840.0,38.562156,-86.49698199999999,722410,5.0,252.01612903225805
756,18.0,119.0,Owen,Indiana,21575.0,39.315596,-86.79982199999999,722410,4.0,185.3997682502897
757,18.0,121.0,Parke,Indiana,17339.0,39.758327,-87.227997,722410,4.0,230.6938116385028
758,18.0,123.0,Perry,Indiana,19338.0,38.009327,-86.705205,722410,5.0,258.55827903609475
759,18.0,125.0,Pike,Indiana,12845.0,38.424833,-87.233923,722410,1.0,77.85130400934216
760,18.0,127.0,Porter,Indiana,164343.0,41.513678999999996,-87.105308,722410,22.0,133.86636485886226
761,18.0,129.0,Posey,Indiana,25910.0,38.013245,-87.823041,722410,3.0,115.78541103820918
762,18.0,131.0,Pulaski,Indiana,13402.0,41.050592,-86.685266,722410,2.0,149.23145799134457
763,18.0,133.0,Putnam,Indiana,37963.0,39.646107,-86.835611,722410,7.0,184.39006400969365
764,18.0,135.0,Randolph,Indiana,26171.0,40.168572999999995,-84.997064,722410,3.0,114.63069810095143
765,18.0,137.0,Ripley,Indiana,28818.0,39.159402,-85.218379,722410,3.0,104.10160316468874
766,18.0,139.0,Rush,Indiana,17392.0,39.623616,-85.47456899999999,722410,1.0,57.49770009199632
767,18.0,141.0,St. Joseph,Indiana,266931.0,41.6754,-86.228686,722410,50.0,187.31432467566523
768,18.0,143.0,Scott,Indiana,24181.0,38.698198,-85.762718,722410,3.0,124.06434804185105
769,18.0,145.0,Shelby,Indiana,44436.0,39.536039,-85.789825,722410,6.0,135.02565487442612
770,18.0,147.0,Spencer,Indiana,20952.0,38.015495,-87.011149,722410,1.0,47.72814051164567
771,18.0,149.0,Starke,Indiana,23363.0,41.282896,-86.631962,722410,7.0,299.6190557719471
772,18.0,151.0,Steuben,Indiana,34185.0,41.649521,-85.010662,722410,6.0,175.51557700745943
773,18.0,153.0,Sullivan,Indiana,21475.0,39.103093,-87.39098800000001,722410,4.0,186.26309662398137
774,18.0,155.0,Switzerland,Indiana,10613.0,38.819835,-85.023499,722410,2.0,188.4481296523132
775,18.0,157.0,Tippecanoe,Indiana,172780.0,40.41788,-86.886971,722410,33.0,190.9943280472277
776,18.0,159.0,Tipton,Indiana,15936.0,40.308849,-86.050587,722410,3.0,188.25301204819277
777,18.0,161.0,Union,Indiana,7516.0,39.618626,-84.919102,722410,2.0,266.09898882384243
778,18.0,163.0,Vanderburgh,Indiana,179703.0,37.996062,-87.551819,722410,41.0,228.15423226100845
779,18.0,165.0,Vermillion,Indiana,16212.0,39.763164,-87.44023100000001,722410,7.0,431.7789291882556
780,18.0,167.0,Vigo,Indiana,107848.0,39.460817,-87.387985,722410,31.0,287.441584452192
781,18.0,169.0,Wabash,Indiana,32888.0,40.858522,-85.80237199999999,722410,4.0,121.62490878131841
782,18.0,171.0,Warren,Indiana,8508.0,40.312186,-87.326289,722410,2.0,235.07287259050304
783,18.0,173.0,Warrick,Indiana,59689.0,38.012884,-87.352574,722410,6.0,100.52103402637002
784,18.0,175.0,Washington,Indiana,28262.0,38.572886,-86.08667700000001,722410,1.0,35.38320005661312
785,18.0,177.0,Wayne,Indiana,68917.0,39.842737,-84.949811,722410,14.0,203.14291103791518
786,18.0,179.0,Wells,Indiana,27636.0,40.770771,-85.194412,722410,2.0,72.36937328122738
787,18.0,181.0,White,Indiana,24643.0,40.755697999999995,-86.81030600000001,722410,4.0,162.3178996063791
788,18.0,183.0,Whitley,Indiana,33292.0,41.163144,-85.47848,722410,4.0,120.14898474107893
789,19.0,1.0,Adair,Iowa,7682.0,41.344629,-94.479157,722410,0.0,0.0
790,19.0,3.0,Adams,Iowa,4029.0,41.006693,-94.70963499999999,722410,2.0,496.4010920824026
791,19.0,5.0,Allamakee,Iowa,14330.0,43.25705,-91.417115,722410,7.0,488.4856943475227
792,19.0,7.0,Appanoose,Iowa,12887.0,40.739836,-92.86703399999999,722410,1.0,77.59757895553659
793,19.0,9.0,Audubon,Iowa,6119.0,41.676829,-94.925302,722410,1.0,163.42539630658604
794,19.0,11.0,Benton,Iowa,26076.0,42.06222,-92.017478,722410,13.0,498.54272127626933
795,19.0,13.0,Black Hawk,Iowa,131090.0,42.490851,-92.370013,722410,48.0,366.1606529864978
796,19.0,15.0,Boone,Iowa,26306.0,42.026494,-93.895155,722410,2.0,76.02828252109785
797,19.0,17.0,Bremer,Iowa,24276.0,42.743058000000005,-92.37696700000001,722410,3.0,123.57884330202668
798,19.0,19.0,Buchanan,Iowa,20958.0,42.486957000000004,-91.901041,722410,11.0,524.8592422941119
799,19.0,21.0,Buena Vista,Iowa,20260.0,42.679153,-95.181444,722410,6.0,296.15004935834156
800,19.0,23.0,Butler,Iowa,14867.0,42.707538,-92.75869200000001,722410,3.0,201.7891975516244
801,19.0,25.0,Calhoun,Iowa,9670.0,42.400162,-94.625331,722410,2.0,206.82523267838675
802,19.0,27.0,Carroll,Iowa,20816.0,42.038571000000005,-94.867634,722410,9.0,432.3597232897771
803,19.0,29.0,Cass,Iowa,13956.0,41.365898,-94.979466,722410,2.0,143.30753797649757
804,19.0,31.0,Cedar,Iowa,18499.0,41.757883,-91.137388,722410,7.0,378.39883236931723
805,19.0,33.0,Cerro Gordo,Iowa,44151.0,43.135116,-93.246222,722410,17.0,385.0422413988358
806,19.0,35.0,Cherokee,Iowa,12072.0,42.749288,-95.593937,722410,5.0,414.18157720344595
807,19.0,37.0,Chickasaw,Iowa,12439.0,43.038059000000004,-92.344319,722410,5.0,401.9615724736715
808,19.0,39.0,Clarke,Iowa,9286.0,41.036834999999996,-93.78126,722410,1.0,107.68899418479432
809,19.0,41.0,Clay,Iowa,16667.0,43.127315,-95.159571,722410,5.0,299.99400011999757
810,19.0,43.0,Clayton,Iowa,18129.0,42.860096999999996,-91.322919,722410,12.0,661.9228859837829
811,19.0,45.0,Clinton,Iowa,49116.0,41.852707,-90.335737,722410,29.0,590.4389608274289
812,19.0,47.0,Crawford,Iowa,17096.0,42.027366,-95.35845400000001,722410,9.0,526.4389330837623
813,19.0,49.0,Dallas,Iowa,66135.0,41.645223,-93.92336800000001,722410,13.0,196.56762682392076
814,19.0,51.0,Davis,Iowa,8753.0,40.765097,-92.415821,722410,2.0,228.49308808408546
815,19.0,53.0,Decatur,Iowa,8457.0,40.71001,-93.821366,722410,0.0,0.0
816,19.0,55.0,Delaware,Iowa,17764.0,42.482434000000005,-91.383342,722410,2.0,112.58725512272011
817,19.0,57.0,Des Moines,Iowa,40325.0,40.833525,-91.141489,722410,17.0,421.5747055176689
818,19.0,59.0,Dickinson,Iowa,16667.0,43.389624,-95.133548,722410,16.0,959.9808003839923
819,19.0,61.0,Dubuque,Iowa,93653.0,42.493726,-90.759915,722410,41.0,437.7862962211568
820,19.0,63.0,Emmet,Iowa,10302.0,43.394425,-94.75499,722410,2.0,194.1370607649
821,19.0,65.0,Fayette,Iowa,20880.0,42.820384999999995,-91.855375,722410,6.0,287.35632183908046
822,19.0,67.0,Floyd,Iowa,16303.0,43.074625,-92.75233,722410,6.0,368.03042384837147
823,19.0,69.0,Franklin,Iowa,10680.0,42.755202000000004,-93.240318,722410,2.0,187.26591760299627
824,19.0,71.0,Fremont,Iowa,7441.0,40.747942,-95.623322,722410,5.0,671.952694530305
825,19.0,73.0,Greene,Iowa,9336.0,42.029792,-94.375962,722410,1.0,107.11225364181664
826,19.0,75.0,Grundy,Iowa,12453.0,42.380262,-92.748284,722410,4.0,321.20774110656066
827,19.0,77.0,Guthrie,Iowa,10954.0,41.669446,-94.431251,722410,2.0,182.58170531312763
828,19.0,79.0,Hamilton,Iowa,15673.0,42.407552,-93.76698499999999,722410,3.0,191.41198239009762
829,19.0,81.0,Hancock,Iowa,11341.0,43.092013,-93.705072,722410,1.0,88.17564588660612
830,19.0,83.0,Hardin,Iowa,17534.0,42.436775,-93.215799,722410,5.0,285.16026006615715
831,19.0,85.0,Harrison,Iowa,14928.0,41.662391,-95.80743299999999,722410,4.0,267.9528403001072
832,19.0,87.0,Henry,Iowa,20145.0,40.981343,-91.537058,722410,10.0,496.4010920824026
833,19.0,89.0,Howard,Iowa,9566.0,43.361616,-92.231027,722410,3.0,313.6107045787163
834,19.0,91.0,Humboldt,Iowa,9815.0,42.746790000000004,-94.215551,722410,3.0,305.65461029037186
835,19.0,93.0,Ida,Iowa,7089.0,42.391343,-95.50438100000001,722410,1.0,141.0636196924813
836,19.0,95.0,Iowa,Iowa,16355.0,41.702615,-92.039923,722410,6.0,366.86028737389177
837,19.0,97.0,Jackson,Iowa,19848.0,42.139283,-90.56678199999999,722410,6.0,302.29746070133007
838,19.0,99.0,Jasper,Iowa,36842.0,41.678374,-93.070038,722410,4.0,108.5717387763965
839,19.0,101.0,Jefferson,Iowa,16843.0,41.013171,-91.964603,722410,3.0,178.11553761206437
840,19.0,103.0,Johnson,Iowa,130882.0,41.679755,-91.55830999999999,722410,44.0,336.1806818355465
841,19.0,105.0,Jones,Iowa,20638.0,42.136466999999996,-91.198513,722410,6.0,290.7258455276674
842,19.0,107.0,Keokuk,Iowa,10511.0,41.325439,-92.17499000000001,722410,2.0,190.27685282085434
843,19.0,109.0,Kossuth,Iowa,15543.0,43.147016,-94.22057,722410,3.0,193.01293186643503
844,19.0,111.0,Lee,Iowa,35862.0,40.55857,-91.396226,722410,23.0,641.3473872065139
845,19.0,113.0,Linn,Iowa,211226.0,42.009607,-91.647251,722410,58.0,274.58740874702926
846,19.0,115.0,Louisa,Iowa,11387.0,41.22579,-91.259929,722410,4.0,351.2777728989198
847,19.0,117.0,Lucas,Iowa,8898.0,41.021148,-93.31304499999999,722410,3.0,337.1544167228591
848,19.0,119.0,Lyon,Iowa,11581.0,43.385265000000004,-96.218544,722410,5.0,431.7416457991538
849,19.0,121.0,Madison,Iowa,15679.0,41.347064,-93.989405,722410,2.0,127.55915555839022
850,19.0,123.0,Mahaska,Iowa,22381.0,41.31208,-92.64101600000001,722410,4.0,178.72302399356596
851,19.0,125.0,Marion,Iowa,33309.0,41.35483,-93.04269000000001,722410,4.0,120.08766399471615
852,19.0,127.0,Marshall,Iowa,40648.0,42.031353,-92.93842099999999,722410,18.0,442.82621531194644
853,19.0,129.0,Mills,Iowa,15059.0,41.04967,-95.695267,722410,2.0,132.81094362175443
854,19.0,131.0,Mitchell,Iowa,10776.0,43.336257,-92.803247,722410,2.0,185.5976243504083
855,19.0,133.0,Monona,Iowa,9243.0,42.063026,-95.985135,722410,7.0,757.329871253922
856,19.0,135.0,Monroe,Iowa,7970.0,41.035615,-92.827682,722410,6.0,752.823086574655
857,19.0,137.0,Montgomery,Iowa,10740.0,41.008619,-95.16799499999999,722410,4.0,372.43947858472995
858,19.0,139.0,Muscatine,Iowa,42745.0,41.464065000000005,-91.078997,722410,13.0,304.12913791086675
859,19.0,141.0,O'Brien,Iowa,14398.0,43.126413,-95.690881,722410,6.0,416.72454507570495
860,19.0,143.0,Osceola,Iowa,6462.0,43.386379999999996,-95.680373,722410,2.0,309.50170225936245
861,19.0,145.0,Page,Iowa,15932.0,40.747616,-95.188476,722410,2.0,125.53351744915892
862,19.0,147.0,Palo Alto,Iowa,9421.0,43.099878000000004,-94.690212,722410,4.0,424.5833775607685
863,19.0,149.0,Plymouth,Iowa,24986.0,42.747907,-96.20343100000001,722410,15.0,600.3361882654286
864,19.0,151.0,Pocahontas,Iowa,7310.0,42.745402,-94.700868,722410,3.0,410.3967168262654
865,19.0,153.0,Polk,Iowa,430640.0,41.623296,-93.641654,722410,142.0,329.74177967676013
866,19.0,155.0,Pottawattamie,Iowa,93158.0,41.278533,-95.79515,722410,34.0,364.9713390154361
867,19.0,157.0,Poweshiek,Iowa,18914.0,41.709953000000006,-92.62066300000001,722410,8.0,422.96711430686264
868,19.0,159.0,Ringgold,Iowa,5131.0,40.733763,-94.23852,722410,1.0,194.89378288832586
869,19.0,161.0,Sac,Iowa,10350.0,42.375805,-95.088801,722410,4.0,386.47342995169083
870,19.0,163.0,Scott,Iowa,165224.0,41.563153,-90.567812,722410,67.0,405.51009538565825
871,19.0,165.0,Shelby,Iowa,12167.0,41.665153000000004,-95.320336,722410,7.0,575.3267033779897
872,19.0,167.0,Sioux,Iowa,33704.0,43.079825,-96.16727,722410,10.0,296.7006883455969
873,19.0,169.0,Story,Iowa,89542.0,42.026371000000005,-93.601827,722410,17.0,189.8550400929173
874,19.0,171.0,Tama,Iowa,17767.0,42.065599,-92.542587,722410,6.0,337.70473349468114
875,19.0,173.0,Taylor,Iowa,6317.0,40.755364,-94.673438,722410,2.0,316.6059838530948
876,19.0,175.0,Union,Iowa,12534.0,41.053083,-94.318925,722410,4.0,319.1319610659007
877,19.0,177.0,Van Buren,Iowa,7570.0,40.745557,-91.939134,722410,3.0,396.3011889035667
878,19.0,179.0,Wapello,Iowa,35625.0,41.016218,-92.418385,722410,15.0,421.0526315789474
879,19.0,181.0,Warren,Iowa,46225.0,41.400884999999995,-93.588243,722410,8.0,173.0665224445646
880,19.0,183.0,Washington,Iowa,21704.0,41.361978,-91.695465,722410,5.0,230.37228160707704
881,19.0,185.0,Wayne,Iowa,6403.0,40.740054,-93.312926,722410,2.0,312.3535842573794
882,19.0,187.0,Webster,Iowa,38013.0,42.480374,-94.179066,722410,14.0,368.2950569541999
883,19.0,189.0,Winnebago,Iowa,10866.0,43.34288,-93.66703100000001,722410,3.0,276.09055770292656
884,19.0,191.0,Winneshiek,Iowa,21056.0,43.281284,-91.814375,722410,12.0,569.9088145896657
885,19.0,193.0,Woodbury,Iowa,102172.0,42.483225,-96.344174,722410,34.0,332.7721880750108
886,19.0,195.0,Worth,Iowa,7598.0,43.36654,-93.252258,722410,1.0,131.61358252171624
887,19.0,197.0,Wright,Iowa,13229.0,42.732195000000004,-93.755488,722410,8.0,604.7320281200393
888,20.0,1.0,Allen,Kansas,13371.0,37.896584000000004,-95.367053,722410,2.0,149.5774437214868
889,20.0,3.0,Anderson,Kansas,8102.0,38.250112,-95.264386,722410,1.0,123.42631449024933
890,20.0,5.0,Atchison,Kansas,16924.0,39.555583,-95.181488,722410,1.0,59.0876861262113
891,20.0,7.0,Barber,Kansas,4861.0,37.212182,-98.557384,722410,1.0,205.71898786257972
892,20.0,9.0,Barton,Kansas,27674.0,38.394738000000004,-98.757739,722410,6.0,216.81000216810003
893,20.0,11.0,Bourbon,Kansas,15173.0,37.845557,-94.749443,722410,2.0,131.81308903974164
894,20.0,13.0,Brown,Kansas,9984.0,39.801272999999995,-95.550384,722410,3.0,300.4807692307692
895,20.0,15.0,Butler,Kansas,65880.0,37.727135,-96.98977099999999,722410,3.0,45.537340619307834
896,20.0,17.0,Chase,Kansas,2790.0,38.358336,-96.55937800000001,722410,0.0,0.0
897,20.0,19.0,Chautauqua,Kansas,3669.0,37.111002,-96.231466,722410,0.0,0.0
898,20.0,21.0,Cherokee,Kansas,21603.0,37.115229,-94.75507900000001,722410,1.0,46.289867148081285
899,20.0,23.0,Cheyenne,Kansas,2726.0,39.768136,-101.73899399999999,722410,0.0,0.0
900,20.0,25.0,Clark,Kansas,2215.0,37.290453,-99.87303299999999,722410,0.0,0.0
901,20.0,27.0,Clay,Kansas,8535.0,39.356195,-97.12257,722410,1.0,117.16461628588166
902,20.0,29.0,Cloud,Kansas,9533.0,39.53395,-97.637247,722410,1.0,104.8987726843596
903,20.0,31.0,Coffey,Kansas,8601.0,38.247657000000004,-95.739982,722410,2.0,232.5311010347634
904,20.0,33.0,Comanche,Kansas,1891.0,37.236270000000005,-99.365215,722410,1.0,528.8207297726071
905,20.0,35.0,Cowley,Kansas,36311.0,37.174285,-96.997786,722410,2.0,55.07972790614414
906,20.0,37.0,Crawford,Kansas,39134.0,37.439934,-94.731394,722410,12.0,306.63872847140595
907,20.0,39.0,Decatur,Kansas,2961.0,39.804328999999996,-100.490859,722410,1.0,337.7237419790612
908,20.0,41.0,Dickinson,Kansas,19754.0,38.881314,-97.149128,722410,6.0,303.7359522122102
909,20.0,43.0,Doniphan,Kansas,7945.0,39.788641999999996,-95.07500999999999,722410,0.0,0.0
910,20.0,45.0,Douglas,Kansas,110826.0,38.941783,-95.251337,722410,32.0,288.7409091729378
911,20.0,47.0,Edwards,Kansas,3037.0,37.914412,-99.354911,722410,2.0,658.5446163977609
912,20.0,49.0,Elk,Kansas,2882.0,37.421638,-96.23670200000001,722410,0.0,0.0
913,20.0,51.0,Ellis,Kansas,28452.0,38.88156,-99.32999000000001,722410,14.0,492.05679741318704
914,20.0,53.0,Ellsworth,Kansas,6497.0,38.721016,-98.262851,722410,1.0,153.9171925504079
915,20.0,55.0,Finney,Kansas,36776.0,37.97733,-100.86582,722410,7.0,190.34152708288016
916,20.0,57.0,Ford,Kansas,33848.0,37.751112,-99.994842,722410,10.0,295.4384306310565
917,20.0,59.0,Franklin,Kansas,25992.0,38.602731,-95.260071,722410,4.0,153.8935056940597
918,20.0,61.0,Geary,Kansas,34362.0,39.03865,-96.83925,722410,12.0,349.2229788720098
919,20.0,63.0,Gove,Kansas,2695.0,39.047631,-100.374241,722410,1.0,371.05751391465674
920,20.0,65.0,Graham,Kansas,2597.0,39.359746,-99.85785200000001,722410,1.0,385.0596842510589
921,20.0,67.0,Grant,Kansas,7829.0,37.580306,-101.34973000000001,722410,2.0,255.46046749265554
922,20.0,69.0,Gray,Kansas,6006.0,37.726577,-100.412964,722410,1.0,166.5001665001665
923,20.0,71.0,Greeley,Kansas,1247.0,38.487089000000005,-101.763211,722410,0.0,0.0
924,20.0,73.0,Greenwood,Kansas,6689.0,37.85753,-96.226569,722410,2.0,298.9983555090447
925,20.0,75.0,Hamilton,Kansas,2690.0,37.979185,-101.76765999999999,722410,0.0,0.0
926,20.0,77.0,Harper,Kansas,6034.0,37.215092,-98.051218,722410,1.0,165.72754391779912
927,20.0,79.0,Harvey,Kansas,34684.0,38.047084999999996,-97.385273,722410,3.0,86.49521393149578
928,20.0,81.0,Haskell,Kansas,4256.0,37.500029,-100.89411,722410,0.0,0.0
929,20.0,83.0,Hodgeman,Kansas,1916.0,38.083504,-99.867564,722410,0.0,0.0
930,20.0,85.0,Jackson,Kansas,13462.0,39.400923999999996,-95.751346,722410,0.0,0.0
931,20.0,87.0,Jefferson,Kansas,19126.0,39.210891,-95.397856,722410,4.0,209.13939140437103
932,20.0,89.0,Jewell,Kansas,3077.0,39.775457,-98.201227,722410,0.0,0.0
933,20.0,91.0,Johnson,Kansas,544179.0,38.928049,-94.73713199999999,722410,37.0,67.99233340500092
934,20.0,93.0,Kearny,Kansas,3977.0,37.954211,-101.237967,722410,0.0,0.0
935,20.0,95.0,Kingman,Kansas,7858.0,37.608437,-98.097712,722410,0.0,0.0
936,20.0,97.0,Kiowa,Kansas,2553.0,37.598711,-99.257059,722410,1.0,391.6960438699569
937,20.0,99.0,Labette,Kansas,21607.0,37.258236,-95.260544,722410,3.0,138.84389318276484
938,20.0,101.0,Lane,Kansas,1750.0,38.503002,-100.487778,722410,2.0,1142.857142857143
939,20.0,103.0,Leavenworth,Kansas,76227.0,39.238518,-94.95930200000001,722410,9.0,118.06840096028967
940,20.0,105.0,Lincoln,Kansas,3241.0,39.036065,-98.175271,722410,0.0,0.0
941,20.0,107.0,Linn,Kansas,9656.0,38.237359000000005,-94.801632,722410,1.0,103.56255178127589
942,20.0,109.0,Logan,Kansas,2756.0,39.098288000000004,-100.92526099999999,722410,0.0,0.0
943,20.0,111.0,Lyon,Kansas,33690.0,38.416154,-96.17977900000001,722410,13.0,385.871178391214
944,20.0,113.0,McPherson,Kansas,29180.0,38.381163,-97.647603,722410,4.0,137.08019191226867
945,20.0,115.0,Marion,Kansas,12660.0,38.326437,-97.124507,722410,0.0,0.0
946,20.0,117.0,Marshall,Kansas,10117.0,39.800028000000005,-96.573612,722410,3.0,296.53059207274885
947,20.0,119.0,Meade,Kansas,4575.0,37.292089000000004,-100.394216,722410,1.0,218.5792349726776
948,20.0,121.0,Miami,Kansas,32787.0,38.590405,-94.83638499999999,722410,2.0,60.99978650074725
949,20.0,123.0,Mitchell,Kansas,6373.0,39.454968,-98.174198,722410,0.0,0.0
950,20.0,125.0,Montgomery,Kansas,35471.0,37.139982,-95.695334,722410,9.0,253.72839784612785
951,20.0,127.0,Morris,Kansas,5923.0,38.698153999999995,-96.588826,722410,1.0,168.83336147222693
952,20.0,129.0,Morton,Kansas,3233.0,37.047093,-101.83833299999999,722410,0.0,0.0
953,20.0,131.0,Nemaha,Kansas,10178.0,39.829915,-95.96262800000001,722410,1.0,98.25112988799371
954,20.0,133.0,Neosho,Kansas,16512.0,37.624963,-95.39482,722410,3.0,181.6860465116279
955,20.0,135.0,Ness,Kansas,3107.0,38.492429,-99.898826,722410,4.0,1287.4155133569361
956,20.0,137.0,Norton,Kansas,5671.0,39.820601,-99.878289,722410,0.0,0.0
957,20.0,139.0,Osage,Kansas,16295.0,38.698945,-95.711621,722410,2.0,122.73703590058301
958,20.0,141.0,Osborne,Kansas,3858.0,39.424792,-98.707572,722410,0.0,0.0
959,20.0,143.0,Ottawa,Kansas,6091.0,39.096434,-97.681833,722410,1.0,164.17665407978984
960,20.0,145.0,Pawnee,Kansas,6973.0,38.178540999999996,-99.147286,722410,0.0,0.0
961,20.0,147.0,Phillips,Kansas,5642.0,39.757048,-99.349355,722410,1.0,177.2421127259837
962,20.0,149.0,Pottawatomie,Kansas,21604.0,39.258472999999995,-96.316121,722410,2.0,92.57544899092761
963,20.0,151.0,Pratt,Kansas,9656.0,37.645065,-98.731177,722410,2.0,207.12510356255177
964,20.0,153.0,Rawlins,Kansas,2519.0,39.807807000000004,-101.053756,722410,1.0,396.9829297340214
965,20.0,155.0,Reno,Kansas,64511.0,38.050915,-97.933041,722410,9.0,139.511091131745
966,20.0,157.0,Republic,Kansas,4980.0,39.818188,-97.659183,722410,1.0,200.80321285140562
967,20.0,159.0,Rice,Kansas,10083.0,38.321963000000004,-98.20102800000001,722410,0.0,0.0
968,20.0,161.0,Riley,Kansas,71115.0,39.189473,-96.633015,722410,19.0,267.17288898263376
969,20.0,163.0,Rooks,Kansas,5181.0,39.314265999999996,-99.31679100000001,722410,3.0,579.0387955993051
970,20.0,165.0,Rush,Kansas,3307.0,38.525797,-99.28359300000001,722410,1.0,302.3888720895071
971,20.0,167.0,Russell,Kansas,6970.0,38.904508,-98.82495899999999,722410,2.0,286.94404591104734
972,20.0,169.0,Saline,Kansas,55606.0,38.815777000000004,-97.60673299999999,722410,13.0,233.7877207495594
973,20.0,171.0,Scott,Kansas,4936.0,38.482303,-100.913605,722410,0.0,0.0
974,20.0,173.0,Sedgwick,Kansas,498365.0,37.678808000000004,-97.344603,722410,108.0,216.7086372437872
975,20.0,175.0,Seward,Kansas,22952.0,37.052196,-100.9161,722410,1.0,43.5691878703381
976,20.0,177.0,Shawnee,Kansas,177934.0,39.035591,-95.705467,722410,32.0,179.8419638742455
977,20.0,179.0,Sheridan,Kansas,2556.0,39.367909999999995,-100.467964,722410,0.0,0.0
978,20.0,181.0,Sherman,Kansas,6010.0,39.349294,-101.726283,722410,0.0,0.0
979,20.0,183.0,Smith,Kansas,3853.0,39.770675,-98.809623,722410,0.0,0.0
980,20.0,185.0,Stafford,Kansas,4437.0,38.006859999999996,-98.736685,722410,0.0,0.0
981,20.0,187.0,Stanton,Kansas,2235.0,37.566266999999996,-101.756238,722410,0.0,0.0
982,20.0,189.0,Stevens,Kansas,5724.0,37.190103,-101.322335,722410,1.0,174.70300489168412
983,20.0,191.0,Sumner,Kansas,24132.0,37.304076,-97.406852,722410,3.0,124.31626056688214
984,20.0,193.0,Thomas,Kansas,7900.0,39.38443,-101.04619,722410,2.0,253.16455696202533
985,20.0,195.0,Trego,Kansas,3001.0,39.004452,-99.881979,722410,0.0,0.0
986,20.0,197.0,Wabaunsee,Kansas,7053.0,38.984769,-96.177572,722410,0.0,0.0
987,20.0,199.0,Wallace,Kansas,1485.0,38.888589,-101.765288,722410,0.0,0.0
988,20.0,201.0,Washington,Kansas,5799.0,39.782029,-97.054087,722410,4.0,689.7740989825832
989,20.0,203.0,Wichita,Kansas,2234.0,38.494296999999996,-101.349386,722410,0.0,0.0
990,20.0,205.0,Wilson,Kansas,9409.0,37.512574,-95.741217,722410,1.0,106.28122010840686
991,20.0,207.0,Woodson,Kansas,3309.0,37.8733,-95.739522,722410,0.0,0.0
992,20.0,209.0,Wyandotte,Kansas,157505.0,39.104143,-94.707937,722410,28.0,177.7721342179613
993,21.0,1.0,Adair,Kentucky,18656.0,37.107756,-85.279096,722410,0.0,0.0
994,21.0,3.0,Allen,Kentucky,19956.0,36.747908,-86.208056,722410,0.0,0.0
995,21.0,5.0,Anderson,Kentucky,21421.0,38.028088000000004,-84.923071,722410,1.0,46.683161383688905
996,21.0,7.0,Ballard,Kentucky,8249.0,37.04421,-88.97886,722410,0.0,0.0
997,21.0,9.0,Barren,Kentucky,42173.0,36.996774,-85.931813,722410,0.0,0.0
998,21.0,11.0,Bath,Kentucky,11591.0,38.139441,-83.73656,722410,0.0,0.0
999,21.0,13.0,Bell,Kentucky,28691.0,36.687928,-83.701396,722410,0.0,0.0
1000,21.0,15.0,Boone,Kentucky,118811.0,38.9871,-84.679715,722410,5.0,42.08364545370378
1001,21.0,17.0,Bourbon,Kentucky,19985.0,38.202978,-84.246611,722410,0.0,0.0
1002,21.0,19.0,Boyd,Kentucky,49542.0,38.431905,-82.66654799999999,722410,0.0,0.0
1003,21.0,21.0,Boyle,Kentucky,28432.0,37.635777000000004,-84.799493,722410,0.0,0.0
1004,21.0,23.0,Bracken,Kentucky,8488.0,38.702562,-84.070088,722410,0.0,0.0
1005,21.0,25.0,Breathitt,Kentucky,13878.0,37.520092,-83.37768,722410,0.0,0.0
1006,21.0,27.0,Breckinridge,Kentucky,20059.0,37.770382,-86.410471,722410,0.0,0.0
1007,21.0,29.0,Bullitt,Kentucky,74319.0,38.022943,-85.655385,722410,1.0,13.45550935830676
1008,21.0,31.0,Butler,Kentucky,12690.0,37.218921,-86.680574,722410,0.0,0.0
1009,21.0,33.0,Caldwell,Kentucky,12984.0,37.127446,-87.87921999999999,722410,0.0,0.0
1010,21.0,35.0,Calloway,Kentucky,37191.0,36.620185,-88.305814,722410,0.0,0.0
1011,21.0,37.0,Campbell,Kentucky,90336.0,39.035049,-84.44141,722410,36.0,398.51222104144523
1012,21.0,39.0,Carlisle,Kentucky,5104.0,36.854337,-88.94788,722410,0.0,0.0
1013,21.0,41.0,Carroll,Kentucky,10811.0,38.668554,-85.139328,722410,2.0,184.99676255665526
1014,21.0,43.0,Carter,Kentucky,27720.0,38.313503000000004,-83.03815999999999,722410,0.0,0.0
1015,21.0,45.0,Casey,Kentucky,15955.0,37.303319,-84.92416800000001,722410,0.0,0.0
1016,21.0,47.0,Christian,Kentucky,73955.0,36.810955,-87.478173,722410,2.0,27.043472381853828
1017,21.0,49.0,Clark,Kentucky,35613.0,37.986825,-84.182232,722410,0.0,0.0
1018,21.0,51.0,Clay,Kentucky,21730.0,37.169598,-83.746759,722410,0.0,0.0
1019,21.0,53.0,Clinton,Kentucky,10272.0,36.713992,-85.135223,722410,0.0,0.0
1020,21.0,55.0,Crittenden,Kentucky,9315.0,37.332496,-88.095078,722410,0.0,0.0
1021,21.0,57.0,Cumberland,Kentucky,6856.0,36.778888,-85.38907900000001,722410,0.0,0.0
1022,21.0,59.0,Daviess,Kentucky,96656.0,37.747732,-87.094971,722410,11.0,113.80566131435192
1023,21.0,61.0,Edmonson,Kentucky,12161.0,37.196775,-86.255277,722410,0.0,0.0
1024,21.0,63.0,Elliott,Kentucky,7852.0,38.122128000000004,-83.106515,722410,0.0,0.0
1025,21.0,65.0,Estill,Kentucky,14672.0,37.706277,-83.988899,722410,0.0,0.0
1026,21.0,67.0,Fayette,Kentucky,295803.0,38.020523,-84.496639,722410,50.0,169.03141617901102
1027,21.0,69.0,Fleming,Kentucky,14348.0,38.388567,-83.708286,722410,0.0,0.0
1028,21.0,71.0,Floyd,Kentucky,39451.0,37.552299,-82.73852600000001,722410,0.0,0.0
1029,21.0,73.0,Franklin,Kentucky,49285.0,38.196045,-84.867592,722410,5.0,101.45074566298062
1030,21.0,75.0,Fulton,Kentucky,6813.0,36.538176,-89.03501700000001,722410,1.0,146.7782181124321
1031,21.0,77.0,Gallatin,Kentucky,8589.0,38.764401,-84.842979,722410,1.0,116.42798928862499
1032,21.0,79.0,Garrard,Kentucky,16912.0,37.649333,-84.57555699999999,722410,0.0,0.0
1033,21.0,81.0,Grant,Kentucky,24662.0,38.688103999999996,-84.602069,722410,0.0,0.0
1034,21.0,83.0,Graves,Kentucky,37121.0,36.741213,-88.650362,722410,0.0,0.0
1035,21.0,85.0,Grayson,Kentucky,25746.0,37.46909,-86.306723,722410,1.0,38.840985007379786
1036,21.0,87.0,Green,Kentucky,11258.0,37.265597,-85.538944,722410,0.0,0.0
1037,21.0,89.0,Greenup,Kentucky,36910.0,38.555431,-82.812206,722410,0.0,0.0
1038,21.0,91.0,Hancock,Kentucky,8565.0,37.868017,-86.804762,722410,0.0,0.0
1039,21.0,93.0,Hardin,Kentucky,105543.0,37.746047,-85.917039,722410,0.0,0.0
1040,21.0,95.0,Harlan,Kentucky,29278.0,36.865625,-83.232825,722410,0.0,0.0
1041,21.0,97.0,Harrison,Kentucky,18846.0,38.415966,-84.314823,722410,0.0,0.0
1042,21.0,99.0,Hart,Kentucky,18199.0,37.278157,-85.885789,722410,0.0,0.0
1043,21.0,101.0,Henderson,Kentucky,46250.0,37.818482,-87.56440500000001,722410,2.0,43.24324324324324
1044,21.0,103.0,Henry,Kentucky,15416.0,38.431903999999996,-85.17949499999999,722410,0.0,0.0
1045,21.0,105.0,Hickman,Kentucky,4902.0,36.666725,-88.959953,722410,0.0,0.0
1046,21.0,107.0,Hopkins,Kentucky,46920.0,37.305865999999995,-87.523154,722410,0.0,0.0
1047,21.0,109.0,Jackson,Kentucky,13494.0,37.402802,-83.99368,722410,0.0,0.0
1048,21.0,111.0,Jefferson,Kentucky,741096.0,38.201775,-85.69183199999999,722410,110.0,148.42881354102573
1049,21.0,113.0,Jessamine,Kentucky,48586.0,37.884454999999996,-84.587046,722410,1.0,20.58206067591487
1050,21.0,115.0,Johnson,Kentucky,23356.0,37.829598,-82.813992,722410,0.0,0.0
1051,21.0,117.0,Kenton,Kentucky,159720.0,39.01319,-84.548581,722410,44.0,275.4820936639118
1052,21.0,119.0,Knott,Kentucky,16346.0,37.32759,-82.940555,722410,0.0,0.0
1053,21.0,121.0,Knox,Kentucky,31883.0,36.901584,-83.915231,722410,0.0,0.0
1054,21.0,123.0,Larue,Kentucky,14193.0,37.544796000000005,-85.72340799999999,722410,0.0,0.0
1055,21.0,125.0,Laurel,Kentucky,58849.0,37.091397,-84.087834,722410,0.0,0.0
1056,21.0,127.0,Lawrence,Kentucky,15860.0,38.078995,-82.68164300000001,722410,0.0,0.0
1057,21.0,129.0,Lee,Kentucky,7887.0,37.591772999999996,-83.70169200000001,722410,0.0,0.0
1058,21.0,131.0,Leslie,Kentucky,11310.0,37.115255,-83.37635,722410,0.0,0.0
1059,21.0,133.0,Letcher,Kentucky,24519.0,37.14583,-82.80717299999999,722410,0.0,0.0
1060,21.0,135.0,Lewis,Kentucky,13870.0,38.562531,-83.347091,722410,1.0,72.09805335255949
1061,21.0,137.0,Lincoln,Kentucky,24742.0,37.473121,-84.669872,722410,0.0,0.0
1062,21.0,139.0,Livingston,Kentucky,9519.0,37.135813,-88.350899,722410,0.0,0.0
1063,21.0,141.0,Logan,Kentucky,26835.0,36.85949,-86.865922,722410,0.0,0.0
1064,21.0,143.0,Lyon,Kentucky,8314.0,37.060704,-88.079778,722410,0.0,0.0
1065,21.0,145.0,McCracken,Kentucky,65565.0,37.048079,-88.648273,722410,11.0,167.77243956379164
1066,21.0,147.0,McCreary,Kentucky,18306.0,36.715761,-84.446083,722410,0.0,0.0
1067,21.0,149.0,McLean,Kentucky,9531.0,37.513232,-87.21931500000001,722410,0.0,0.0
1068,21.0,151.0,Madison,Kentucky,82916.0,37.70616,-84.287451,722410,5.0,60.301992377828164
1069,21.0,153.0,Magoffin,Kentucky,13333.0,37.729816,-83.056234,722410,0.0,0.0
1070,21.0,155.0,Marion,Kentucky,19820.0,37.569587,-85.287195,722410,1.0,50.45408678102926
1071,21.0,157.0,Marshall,Kentucky,31448.0,36.898302,-88.339329,722410,0.0,0.0
1072,21.0,159.0,Martin,Kentucky,12929.0,37.830545,-82.51692,722410,0.0,0.0
1073,21.0,161.0,Mason,Kentucky,17490.0,38.616398,-83.788535,722410,6.0,343.05317324185245
1074,21.0,163.0,Meade,Kentucky,28602.0,37.934298,-86.132811,722410,7.0,244.73813020068528
1075,21.0,165.0,Menifee,Kentucky,6306.0,37.939448999999996,-83.598399,722410,0.0,0.0
1076,21.0,167.0,Mercer,Kentucky,21331.0,37.785009,-84.849691,722410,0.0,0.0
1077,21.0,169.0,Metcalfe,Kentucky,10099.0,36.990815999999995,-85.641586,722410,0.0,0.0
1078,21.0,171.0,Monroe,Kentucky,10963.0,36.708328,-85.72992099999999,722410,0.0,0.0
1079,21.0,173.0,Montgomery,Kentucky,26499.0,38.035773,-83.917436,722410,0.0,0.0
1080,21.0,175.0,Morgan,Kentucky,13923.0,37.91274,-83.266566,722410,0.0,0.0
1081,21.0,177.0,Muhlenberg,Kentucky,31499.0,37.23809,-87.14704,722410,0.0,0.0
1082,21.0,179.0,Nelson,Kentucky,43437.0,37.818018,-85.460371,722410,4.0,92.08739093399636
1083,21.0,181.0,Nicholas,Kentucky,7135.0,38.327655,-84.023779,722410,0.0,0.0
1084,21.0,183.0,Ohio,Kentucky,23842.0,37.465058,-86.864293,722410,0.0,0.0
1085,21.0,185.0,Oldham,Kentucky,60316.0,38.372848,-85.459538,722410,0.0,0.0
1086,21.0,187.0,Owen,Kentucky,10841.0,38.531935,-84.831925,722410,0.0,0.0
1087,21.0,189.0,Owsley,Kentucky,4755.0,37.452096999999995,-83.684099,722410,0.0,0.0
1088,21.0,191.0,Pendleton,Kentucky,14877.0,38.715798,-84.359742,722410,0.0,0.0
1089,21.0,193.0,Perry,Kentucky,28712.0,37.257625,-83.20106,722410,1.0,34.82864307606576
1090,21.0,195.0,Pike,Kentucky,65024.0,37.463505,-82.420659,722410,2.0,30.75787401574803
1091,21.0,197.0,Powell,Kentucky,12613.0,37.852292999999996,-83.88113,722410,0.0,0.0
1092,21.0,199.0,Pulaski,Kentucky,63063.0,37.092819,-84.614645,722410,0.0,0.0
1093,21.0,201.0,Robertson,Kentucky,2282.0,38.520826,-84.04884799999999,722410,0.0,0.0
1094,21.0,203.0,Rockcastle,Kentucky,17056.0,37.381612,-84.348396,722410,0.0,0.0
1095,21.0,205.0,Rowan,Kentucky,23333.0,38.194615999999996,-83.442318,722410,1.0,42.8577551107873
1096,21.0,207.0,Russell,Kentucky,17565.0,37.029336,-85.05932,722410,0.0,0.0
1097,21.0,209.0,Scott,Kentucky,47173.0,38.231691,-84.570575,722410,0.0,0.0
1098,21.0,211.0,Shelby,Kentucky,42074.0,38.213513,-85.230241,722410,1.0,23.767647478252602
1099,21.0,213.0,Simpson,Kentucky,17327.0,36.733284999999995,-86.572109,722410,0.0,0.0
1100,21.0,215.0,Spencer,Kentucky,17061.0,38.059721,-85.350915,722410,1.0,58.613211417853584
1101,21.0,217.0,Taylor,Kentucky,24512.0,37.350402,-85.343425,722410,1.0,40.79634464751958
1102,21.0,219.0,Todd,Kentucky,12460.0,36.81176,-87.171454,722410,0.0,0.0
1103,21.0,221.0,Trigg,Kentucky,14339.0,36.847046999999996,-87.836202,722410,0.0,0.0
1104,21.0,223.0,Trimble,Kentucky,8809.0,38.620698,-85.332526,722410,0.0,0.0
1105,21.0,225.0,Union,Kentucky,15007.0,37.653315,-87.926958,722410,0.0,0.0
1106,21.0,227.0,Warren,Kentucky,113792.0,36.970396,-86.434563,722410,12.0,105.45556805399325
1107,21.0,229.0,Washington,Kentucky,11717.0,37.738655,-85.190875,722410,0.0,0.0
1108,21.0,231.0,Wayne,Kentucky,20813.0,36.837888,-84.844614,722410,0.0,0.0
1109,21.0,233.0,Webster,Kentucky,13621.0,37.499711,-87.687044,722410,0.0,0.0
1110,21.0,235.0,Whitley,Kentucky,35637.0,36.809692,-84.14099499999999,722410,0.0,0.0
1111,21.0,237.0,Wolfe,Kentucky,7355.0,37.740621999999995,-83.510902,722410,0.0,0.0
1112,21.0,239.0,Woodford,Kentucky,24939.0,38.050067999999996,-84.727271,722410,0.0,0.0
1113,22.0,1.0,Acadia,Louisiana,61773.0,30.278554999999997,-92.351799,722410,1.0,16.188302332734366
1114,22.0,3.0,Allen,Louisiana,25764.0,30.669387,-92.774458,722410,1.0,38.81384878124515
1115,22.0,5.0,Ascension,Louisiana,107215.0,30.248525,-90.934028,722410,15.0,139.90579676351257
1116,22.0,7.0,Assumption,Louisiana,23421.0,29.922957,-91.06645,722410,4.0,170.78690064472056
1117,22.0,9.0,Avoyelles,Louisiana,42073.0,31.053586,-92.062566,722410,3.0,71.30463717823783
1118,22.0,11.0,Beauregard,Louisiana,35654.0,30.733884999999997,-93.287136,722410,0.0,0.0
1119,22.0,13.0,Bienville,Louisiana,14353.0,32.388898,-93.080261,722410,0.0,0.0
1120,22.0,15.0,Bossier,Louisiana,116979.0,32.555696999999995,-93.656675,722410,14.0,119.67960061207567
1121,22.0,17.0,Caddo,Louisiana,254969.0,32.472074,-93.800831,722410,53.0,207.86840753189603
1122,22.0,19.0,Calcasieu,Louisiana,192768.0,30.227531,-93.261485,722410,31.0,160.81507304116866
1123,22.0,21.0,Caldwell,Louisiana,10132.0,32.078215,-92.103757,722410,1.0,98.69719699960521
1124,22.0,23.0,Cameron,Louisiana,6839.0,29.956692999999998,-93.212142,722410,2.0,292.4404152653897
1125,22.0,25.0,Catahoula,Louisiana,10407.0,31.696935999999997,-91.824471,722410,1.0,96.08917075045643
1126,22.0,27.0,Claiborne,Louisiana,17195.0,32.833682,-93.03305999999999,722410,0.0,0.0
1127,22.0,29.0,Concordia,Louisiana,20822.0,31.592783,-91.545991,722410,1.0,48.02612621265968
1128,22.0,31.0,De Soto,Louisiana,26656.0,32.10498,-93.77673399999999,722410,0.0,0.0
1129,22.0,33.0,East Baton Rouge,Louisiana,440171.0,30.462491999999997,-91.100943,722410,62.0,140.85434978678742
1130,22.0,35.0,East Carroll,Louisiana,7759.0,32.770972,-91.19516,722410,2.0,257.7651759247326
1131,22.0,37.0,East Feliciana,Louisiana,20267.0,30.826843,-91.089224,722410,0.0,0.0
1132,22.0,39.0,Evangeline,Louisiana,33984.0,30.685722,-92.36223100000001,722410,0.0,0.0
1133,22.0,41.0,Franklin,Louisiana,20767.0,32.143813,-91.696268,722410,3.0,144.45996051427747
1134,22.0,43.0,Grant,Louisiana,22309.0,31.534149,-92.542816,722410,1.0,44.82495853691335
1135,22.0,45.0,Iberia,Louisiana,73240.0,29.994199,-91.810231,722410,1.0,13.653741125068269
1136,22.0,47.0,Iberville,Louisiana,33387.0,30.272099,-91.234302,722410,4.0,119.80711055201125
